City_ID,City,Lat,Lng,Max Temp,Humidity,Cloudiness,Wind Speed,Country,Date
0,san antonio de pale,-1.4014,5.6325,26.8,80,100,4.15,GQ,1701479575
1,albany,42.6001,-73.9662,6.79,88,100,0.89,US,1701479324
2,la asuncion,11.0333,-63.8628,26.87,85,6,7.79,VE,1701479575
3,aswan,24.0934,32.907,18.03,33,0,3.94,EG,1701479575
4,makinsk,52.6292,70.4169,-2.06,96,100,6.5,KZ,1701479575
5,waitangi,-43.9535,-176.5597,14.34,59,5,2.6,NZ,1701479576
6,atafu village,-8.5421,-172.5159,28.79,78,100,4.47,TK,1701479573
7,grytviken,-54.2811,-36.5092,2.44,81,14,5.83,GS,1701479453
8,adamstown,-25.066,-130.1015,22.27,73,0,5.12,PN,1701479566
9,tiksi,71.6872,128.8694,-30.56,99,100,2.68,RU,1701479576
10,puerto natales,-51.7236,-72.4875,1.67,95,39,1.83,CL,1701479576
11,sovetskiy,61.3614,63.5842,-18.83,98,100,1.25,RU,1701479576
12,port-aux-francais,-49.35,70.2167,4.03,91,100,12.32,TF,1701479577
13,barra de santo antonio,-9.4047,-35.5072,24.6,83,73,4.64,BR,1701479486
14,bethel,41.3712,-73.414,7.52,86,100,2.57,US,1701479570
15,alice springs,-23.7,133.8833,28.75,34,0,5.14,AU,1701479577
16,thompson,55.7435,-97.8558,-12.91,78,100,4.12,CA,1701479432
17,hadibu,12.65,54.0333,25.54,69,100,6.57,YE,1701479577
18,hewitt,31.4624,-97.1958,13.46,66,0,2.06,US,1701479578
19,vorgashor,67.5833,63.95,-11.91,87,100,2.03,RU,1701479578
20,ballina,-28.8667,153.5667,29.32,48,1,3.98,AU,1701479578
21,iqaluit,63.7506,-68.5145,-6.28,67,100,7.15,CA,1701479569
22,bredasdorp,-34.5322,20.0403,15.21,83,0,2.14,ZA,1701479578
23,edinburgh of the seven seas,-37.0676,-12.3116,13.45,74,40,6.78,SH,1701479569
24,komsomol'skiy,43.9783,46.6985,8.15,96,100,2.9,RU,1701479578
25,nyurba,63.2842,118.3319,-34.08,99,100,1.26,RU,1701479578
26,sinabang,2.4803,96.3801,26.35,83,100,3.53,ID,1701479579
27,forbes,-33.3833,148.0167,27.43,29,3,5.52,AU,1701479579
28,wailua homesteads,22.0669,-159.378,26.24,87,0,3.6,US,1701479579
29,keflavik,64.0049,-22.5624,-1.76,74,0,2.57,IS,1701479579
30,papatowai,-46.5619,169.4708,17.43,58,100,3.05,NZ,1701479579
31,utrik,11.2278,169.8474,26.92,79,100,10,MH,1701479579
32,port douglas,-16.4833,145.4667,36.63,42,22,2.8,AU,1701479580
33,happy valley-goose bay,53.3168,-60.3315,-2.46,96,99,1.09,CA,1701479458
34,port elizabeth,-33.918,25.5701,19.06,81,100,0.89,ZA,1701479571
35,ushuaia,-54.8,-68.3,2.61,99,98,1.07,AR,1701479580
36,pamanukan,-6.2842,107.8106,27.7,75,100,0.65,ID,1701479580
37,saipan,15.1355,145.701,24.39,100,100,4.12,MP,1701479580
38,badger,64.8,-147.5333,-18.07,85,20,0,US,1701479580
39,blackmans bay,-43.0167,147.3167,17.07,64,100,3.1,AU,1701479581
40,brookings,44.3114,-96.7984,-1.01,62,100,3.6,US,1701479581
41,lycksele,64.5954,18.6735,-13.07,85,100,1.54,SE,1701479581
42,wynyard,-41,145.7167,16.76,71,100,1.27,AU,1701479370
43,college,64.8569,-147.8028,-18.03,78,20,0,US,1701479395
44,paradip garh,20.3167,86.6167,22.21,66,19,4.88,IN,1701479582
45,kamogawa,35.1,140.1,12.85,47,5,2.81,JP,1701479582
46,xinzhi,36.4989,111.7047,1.77,20,0,1.04,CN,1701479582
47,ratnagiri,16.9833,73.3,23.68,75,93,1.98,IN,1701479582
48,gejiu,23.306,103.1635,10.78,95,100,1.93,CN,1701479402
49,hamilton,39.1834,-84.5333,11.8,96,100,4.63,US,1701479464
50,choma,-16.8065,26.9531,17.25,83,46,1.88,ZM,1701479583
51,belmonte,-15.8631,-38.8828,25.2,83,100,4.22,BR,1701479583
52,felipe carrillo puerto,19.5833,-88.05,23.8,98,100,1.38,MX,1701479584
53,tamanrasset,22.785,5.5228,11.95,20,0,1.03,DZ,1701479584
54,puerto aysen,-45.4,-72.7,2.77,99,76,2.06,CL,1701479584
55,new norfolk,-42.7826,147.0587,17.72,55,100,1.48,AU,1701479583
56,uturoa,-16.7333,-151.4333,27.35,78,2,8.02,PF,1701479585
57,nizhnesortymskiy,62.4397,71.7603,-22.61,100,71,3.2,RU,1701479585
58,west island,-12.1568,96.8225,26.99,69,11,3.6,CC,1701479585
59,ugoofaaru,5.6667,73,28.22,72,100,2.22,MV,1701479586
60,mena,51.5217,32.2157,-3.47,97,100,0.94,UA,1701479586
61,protaras,35.0125,34.0583,15.55,89,0,1.34,CY,1701479586
62,shagonar,51.5333,92.8,-16.43,98,100,1.36,RU,1701479586
63,ravar,31.2656,56.8055,10.64,41,0,0.62,IR,1701479587
64,havsa,41.549,26.8221,16.25,86,66,9.28,TR,1701479587
65,bengkulu,-3.8004,102.2655,25.11,88,97,1.29,ID,1701479587
66,olonkinbyen,70.9221,-8.7187,-1.89,72,85,4.06,SJ,1701479587
67,kodiak,57.79,-152.4072,2.73,87,100,3.09,US,1701479584
68,petropavlovsk-kamchatsky,53.0452,158.6483,-5.12,81,0,7.6,RU,1701479588
69,daru,-9.0763,143.2092,30.66,65,100,4.34,PG,1701479588
70,kirakira,-10.4544,161.9205,29.76,75,100,5.89,SB,1701479588
71,puerto colombia,10.9878,-74.9547,28.37,76,12,8.8,CO,1701479588
72,jamestown,42.097,-79.2353,6.12,99,100,2.06,US,1701479401
73,ban na san,8.8004,99.3637,26.03,99,98,1.22,TH,1701479590
74,gaalkacyo,6.7697,47.4308,23.52,60,100,5.14,SO,1701479590
75,albert lea,43.648,-93.3683,-1.68,64,0,2.57,US,1701479497
76,ilulissat,69.2167,-51.1,1.01,44,17,8.23,GL,1701479578
77,hermanus,-34.4187,19.2345,16.26,84,10,2.73,ZA,1701479591
78,kargasok,59.0556,80.8572,-10.58,97,100,2.24,RU,1701479591
79,minas de marcona,-15.2119,-75.1103,15.18,80,42,5.74,PE,1701479592
80,kropachevo,55.0112,57.9896,-4.39,95,100,1.27,RU,1701479592
81,kingscliff,-28.2667,153.5667,30.89,51,0,4.63,AU,1701479592
82,vorkuta,67.5,64,-11.86,89,100,2.04,RU,1701479592
83,tura,25.5198,90.2201,17.77,72,75,1.33,IN,1701479593
84,crucecita,-28.95,-58.9833,28.56,75,4,3.77,AR,1701479593
85,northam,51.0333,-4.2167,-2.64,83,5,1.28,GB,1701479594
86,taupo,-38.6833,176.0833,18.41,50,100,0.46,NZ,1701479365
87,waingapu,-9.6567,120.2641,30.15,67,51,0.96,ID,1701479594
88,udachny,66.4167,112.4,-30.31,74,100,3.32,RU,1701479399
89,antsiranana,-12.2787,49.2917,25.49,81,100,1.07,MG,1701479594
90,vila franca do campo,37.7167,-25.4333,17.23,99,100,4.48,PT,1701479594
91,queenstown,-31.8976,26.8753,14.34,54,56,0.59,ZA,1701479346
92,red deer,52.2668,-113.802,-12.62,96,100,1.23,CA,1701479472
93,avarua,-21.2078,-159.775,27.03,83,100,7.72,CK,1701479375
94,marghita,47.35,22.3333,4.96,93,100,0.59,RO,1701479595
95,sos'va,59.1766,61.8558,-8.86,95,100,1.34,RU,1701479595
96,diu,20.7141,70.9822,21.94,54,0,4.4,IN,1701479596
97,bilibino,68.0546,166.4372,-25.29,94,100,1.67,RU,1701479596
98,tosontsengel,48.7567,98.2839,-17.39,82,100,0.6,MN,1701479596
99,lodwar,3.1191,35.5973,28.31,46,4,3.84,KE,1701479597
100,tazovsky,67.4667,78.7,-14.12,95,100,3.05,RU,1701479597
101,bathsheba,13.2167,-59.5167,26.34,83,20,6.69,BB,1701479597
102,yellowknife,62.456,-114.3525,-18.71,84,100,3.09,CA,1701479557
103,ribeira grande,38.5167,-28.7,17.65,84,100,8.49,PT,1701479598
104,carnarvon,-24.8667,113.6333,24.67,71,9,6.97,AU,1701479598
105,rio grande,-32.035,-52.0986,23.3,91,100,8.44,BR,1701479598
106,vrontados,38.4089,26.1328,18.41,85,100,10.37,GR,1701479598
107,talnakh,69.4865,88.3972,-23.22,89,6,2.44,RU,1701479599
108,margate,51.3813,1.3862,2.61,84,100,0.89,GB,1701479599
109,puerto ayora,-0.7393,-90.3518,24.75,92,100,3.58,EC,1701479599
110,port mathurin,-19.6833,63.4167,25.33,83,9,5.79,MU,1701479599
111,pasuquin,18.3328,120.6177,28.09,69,6,6.36,PH,1701479600
112,puerto baquerizo moreno,-0.9,-89.6,24.27,80,99,5.91,EC,1701479600
113,tazacorte,28.629,-17.9293,20.54,87,100,3.6,ES,1701479600
114,isafjordur,66.0755,-23.124,-3.89,82,68,1.02,IS,1701479601
115,laguna,38.421,-121.4238,15.16,51,100,2.57,US,1701479601
116,sinjar,36.3209,41.8754,10.68,52,0,1.49,IQ,1701479601
117,port lincoln,-34.7333,135.8667,18.34,54,14,4.25,AU,1701479601
118,vadso,70.0744,29.7487,-4.91,86,100,2.57,NO,1701479602
119,bubaque,11.2833,-15.8333,28.06,63,100,5.28,GW,1701479602
120,ixtapa,20.7,-105.2,25.57,73,75,2.06,MX,1701479488
121,lompoc,34.6391,-120.4579,17.08,73,0,4.63,US,1701479339
122,touros,-5.1989,-35.4608,26.16,80,17,5.48,BR,1701479598
123,neftegorsk,52.802,51.166,-1.45,98,100,6.41,RU,1701479603
124,ponta delgada,37.7333,-25.6667,17.4,63,20,5.66,PT,1701479603
125,puerto deseado,-47.7503,-65.8938,11.76,38,100,0.43,AR,1701479603
126,sake,-1.5736,29.045,17.32,94,97,0.27,CD,1701479603
127,tabou,4.423,-7.3528,25.92,88,8,3.24,CI,1701479604
128,severnoye,56.3491,78.3619,-7.23,95,84,2.68,RU,1701479604
129,longyearbyen,78.2186,15.6401,-7.09,68,75,8.23,SJ,1701479575
130,constantia,44.1833,28.65,10.39,84,25,4.26,RO,1701479604
131,port alfred,-33.5906,26.891,17.88,90,100,0.89,ZA,1701479604
132,dzhalagash,45.0833,64.6667,2.49,46,70,2.47,KZ,1701479605
133,palikir - national government center,6.9248,158.1611,30.47,70,100,5.14,FM,1701479605
134,cabo san lucas,22.8909,-109.9124,24.31,57,20,5.14,MX,1701479551
135,east london,-33.0153,27.9116,19.8,77,92,6.2,ZA,1701479605
136,menongue,-14.6585,17.691,17.58,93,100,1.57,AO,1701479605
137,bandundu,-3.3167,17.3667,21.87,99,100,1.74,CD,1701479606
138,caluula,11.9661,50.7569,26.41,65,97,5.69,SO,1701479606
139,vernon,50.2581,-119.2691,0.52,72,100,0.89,CA,1701479606
140,sitka,57.0531,-135.33,6.94,57,75,7.72,US,1701479606
141,gokwe,-18.2048,28.9349,16.35,59,5,3.16,ZW,1701479607
142,puerto ayacucho,5.6639,-67.6236,27.22,71,71,1.36,VE,1701479607
143,baharampur,24.1,88.25,20.6,58,84,1.61,IN,1701479607
144,aasiaat,68.7098,-52.8699,-10.17,84,52,4.07,GL,1701479607
145,wielun,51.221,18.5696,-2.05,83,100,2.93,PL,1701479607
146,luba,3.4568,8.5547,24.94,84,100,3.45,GQ,1701479608
147,hawaiian paradise park,19.5933,-154.9731,26.04,85,75,4.12,US,1701479608
148,enewetak,11.3474,162.3373,27.68,78,66,8.75,MH,1701479608
149,altamira,-3.2033,-52.2064,25.32,76,3,1.24,BR,1701479609
150,iskateley,67.6803,53.1512,-6.66,96,100,2.24,RU,1701479609
151,karratha,-20.7377,116.8463,28.32,49,0,4.93,AU,1701479609
152,ulanhot,46.0833,122.0833,-11.76,67,2,3.24,CN,1701479609
153,gotsucho,35,132.2167,8.96,57,81,5.5,JP,1701479408
154,qaqortoq,60.7167,-46.0333,-4.74,83,100,1.81,GL,1701479610
155,kerikeri,-35.2268,173.9474,19.74,57,90,3.52,NZ,1701479610
156,galliano,29.4422,-90.2992,22,83,100,3.09,US,1701479610
157,princeville,45.7668,-61.2985,7.73,94,99,2.41,CA,1701479610
158,hithadhoo,-0.6,73.0833,27.23,77,100,4.98,MV,1701479611
159,richards bay,-28.783,32.0377,19.87,66,0,7.37,ZA,1701479611
160,anadyr,64.75,177.4833,-13.72,92,40,1,RU,1701479611
161,kapuskasing,49.4169,-82.4331,-6.95,79,100,2.57,CA,1701479483
162,maintirano,-18.0667,44.0167,25.29,79,100,2.64,MG,1701479611
163,youkounkoun,12.5333,-13.1333,25.53,26,99,1.16,GN,1701479612
164,gornyye klyuchi,45.25,133.5,-11.48,86,13,2.18,RU,1701479612
165,ust-nera,64.5667,143.2,-28.14,99,100,0.94,RU,1701479318
166,grand falls-windsor,48.9332,-55.6649,4.72,93,100,0.45,CA,1701479612
167,maracacume,-2.0428,-45.9592,23.43,93,75,1.45,BR,1701479612
168,colonia,50.9333,6.95,-0.58,71,100,2.06,DE,1701479551
169,hasaki,35.7333,140.8333,11.27,52,2,3.81,JP,1701479613
170,kone,-21.0595,164.8658,32.32,46,7,2.1,NC,1701479601
171,mount pearl,47.5166,-52.7813,4.36,93,100,3.58,CA,1701479613
172,abu dhabi,24.4667,54.3667,24.97,62,1,2.86,AE,1701479512
173,kas,36.2018,29.6377,15.78,76,7,1.83,TR,1701479614
174,svetlyy,54.675,20.1347,0.2,96,98,0.04,RU,1701479614
175,tchintabaraden,15.8969,5.7985,22.96,18,0,4.64,NE,1701479614
176,punta arenas,-53.15,-70.9167,6.06,65,75,8.23,CL,1701479614
177,bacon,13.0378,124.0411,27.12,84,56,7.18,PH,1701479614
178,murray bridge,-35.1167,139.2667,17.29,61,81,6.34,AU,1701479615
179,niafunke,15.9322,-3.9906,26.65,16,11,5.23,ML,1701479615
180,pangody,65.85,74.4859,-20.52,97,39,3.63,RU,1701479615
181,kirensk,57.7853,108.1119,-10.02,91,100,4.02,RU,1701479615
182,igarka,67.4667,86.5833,-17.69,93,100,3.77,RU,1701479616
183,santiago de cao,-7.9589,-79.2392,20.07,83,75,4.12,PE,1701479616
184,ta'izz,13.5,44,17.36,59,82,1.25,YE,1701479616
185,shahba,32.8551,36.629,11.33,57,0,1.5,SY,1701479616
186,qulsary,46.9531,54.0198,4.38,92,100,3.58,KZ,1701479617
187,susuman,62.7833,148.1667,-24.85,98,100,1.56,RU,1701479617
188,holualoa,19.6228,-155.9522,27.53,79,75,5.66,US,1701479618
189,tahe,52.3333,124.7333,-15.21,74,25,1.19,CN,1701479618
190,bodaybo,57.8506,114.1933,-13.22,97,100,0.35,RU,1701479531
191,welshpool,52.6597,-3.1471,-0.29,90,6,1.56,GB,1701479618
192,kendari,-3.945,122.4989,29.29,76,23,1.09,ID,1701479618
193,chonchi,-42.6128,-73.8092,7.29,95,13,1.55,CL,1701479619
194,ylitornio,66.3089,23.6773,-17.16,98,100,2.39,FI,1701479619
195,vila velha,-20.3297,-40.2925,26.97,76,20,4.12,BR,1701479620
196,mathis,28.0945,-97.828,18.03,83,95,3.49,US,1701479620
197,ain sukhna,29.6002,32.3167,16.3,90,24,2.55,EG,1701479620
198,prainha,-1.8,-53.48,26.92,69,100,1.48,BR,1701479448
199,flin flon,54.7682,-101.865,-14.72,99,72,1.53,CA,1701479488
200,kinchil,20.9167,-89.95,28.04,57,100,3.3,MX,1701479621
201,strezhevoy,60.7333,77.5889,-12.8,97,93,0.89,RU,1701479543
202,lillehammer,61.1146,10.4674,-9.99,98,99,0.52,NO,1701479621
203,bargaal,11.2864,51.0773,24.89,71,19,6.46,SO,1701479622
204,stanley,54.868,-1.6985,-6.99,100,12,0.51,GB,1701479622
205,sisimiut,66.9395,-53.6735,-3.73,77,100,2.84,GL,1701479602
206,taoudenni,22.6783,-3.9836,20.94,13,8,0.63,ML,1701479622
207,fort bragg,35.139,-79.006,19.91,87,100,3.6,US,1701479623
208,visby,57.6409,18.296,-0.66,86,100,1.54,SE,1701479623
209,georgetown,5.4112,100.3354,27.19,83,20,2.06,MY,1701479428
210,lebu,-37.6167,-73.65,11.14,88,100,5.53,CL,1701479422
211,zhangye,38.9342,100.4517,-3.1,32,41,0.78,CN,1701479623
212,kiruna,67.8557,20.2251,-11.49,92,100,1.03,SE,1701479623
213,padang,-0.9492,100.3543,25.03,91,100,1.02,ID,1701479624
214,preobrazheniye,42.9019,133.9064,-4.71,53,0,2.54,RU,1701479624
215,san patricio,28.017,-97.5169,18.08,80,100,4.34,US,1701479624
216,kingston,17.997,-76.7936,26.78,88,63,1.33,JM,1701479624
217,funafuti,-8.5243,179.1942,28,83,75,0,TV,1701479625
218,invercargill,-46.4,168.35,14.05,71,100,2.37,NZ,1701479397
219,tadine,-21.55,167.8833,25.97,69,61,4.43,NC,1701479625
220,magadan,59.5667,150.8,-14.15,86,100,4.47,RU,1701479625
221,duyun,26.2667,107.5167,5.47,91,100,1.38,CN,1701479625
222,guatrache,-37.6678,-63.5302,21.89,24,3,1.89,AR,1701479626
223,whitehorse,60.7161,-135.0538,-13.28,98,100,0.65,CA,1701479423
224,mar del plata,-38.0023,-57.5575,17.83,87,17,0.45,AR,1701479469
225,belyy yar,53.6039,91.3903,-6.06,86,75,1,RU,1701479626
226,essaouira,31.5125,-9.77,17.8,78,97,8.42,MA,1701479626
227,maun,-19.9833,23.4167,23.94,41,36,2.87,BW,1701479626
228,oleiros,43.3333,-8.3167,8.21,97,75,2.06,ES,1701479402
229,klyuchi,52.2667,79.1667,-2.13,86,100,5.36,RU,1701479431
230,san ignacio de velasco,-16.3667,-60.95,25.69,72,87,2.73,BO,1701479627
231,kourou,5.1552,-52.6478,25.03,85,100,2.46,GF,1701479627
232,nova sintra,14.8667,-24.7167,22.79,75,100,4.26,CV,1701479627
233,sant antoni de portmany,38.9807,1.3036,15.77,56,0,9.26,ES,1701479628
234,harsud,22.1,76.7333,18.23,94,0,2.86,IN,1701479628
235,marshall,34.3834,-86.3333,16.88,96,100,3.09,US,1701479628
236,anar darah,32.7587,61.654,12.33,43,76,1.88,AF,1701479628
237,vilyuchinsk,52.9306,158.4028,-4.3,75,8,5.31,RU,1701479628
238,st. john's,47.5649,-52.7093,4.82,93,100,2.24,CA,1701479578
239,codrington,-38.2667,141.9667,16.97,65,45,6.35,AU,1701479629
240,merritt,50.1123,-120.7942,-2.04,89,83,1.34,CA,1701479629
241,balqash,46.8481,74.995,1.66,60,100,3.74,KZ,1701479629
242,lazaro cardenas,17.9583,-102.2,26.59,72,100,2.55,MX,1701479629
243,al jaradiyah,16.5795,42.9124,25.72,74,96,0.16,SA,1701479629
244,kenai,60.5544,-151.2583,-1.03,88,0,0,US,1701479630
245,la passe,45.5549,-0.8967,4.13,86,16,3.92,FR,1701479630
246,pinheiro machado,-31.5783,-53.3811,21.76,96,100,2.06,BR,1701479630
247,kokoda,-8.8785,147.7407,27.32,80,94,1.54,PG,1701479630
248,gadzhiyevo,69.2551,33.3362,-14.78,99,88,2.45,RU,1701479631
249,gizo,-8.103,156.8419,28.65,76,99,2.96,SB,1701479631
250,flying fish cove,-10.4217,105.6791,27.82,65,40,4.12,CX,1701479625
251,kijang,35.2442,129.2139,3.37,53,0,2.56,KR,1701479631
252,al burayqah,30.4062,19.5739,17.9,38,5,5.62,LY,1701479631
253,kailua-kona,19.6406,-155.9956,29.6,80,75,5.66,US,1701479632
254,afaahiti,-17.75,-149.2833,29.93,85,55,7.2,PF,1701479632
255,raiganj,25.6167,88.1167,20.24,57,94,1.5,IN,1701479632
256,zaozersk,69.4005,32.4476,-12.05,97,95,0.6,RU,1701479632
257,callao,-12.0667,-77.15,23.73,83,0,4.63,PE,1701479632
258,el granada,37.5027,-122.4694,14.39,78,75,4.63,US,1701479438
259,prince albert,53.2001,-105.7677,-8.14,80,51,2.17,CA,1701479633
260,ban su-ngai pa di,6.0724,101.8717,23.31,98,100,0.82,TH,1701479633
261,reggane,26.7158,0.1714,17.45,13,100,2.13,DZ,1701479633
262,ebon,4.582,168.6964,27.95,80,100,7.77,MH,1701479633
263,kattivakkam,13.2167,80.3167,26.15,87,98,8,IN,1701479633
264,alappuzha,9.49,76.3264,25.57,83,93,1.51,IN,1701479467
265,zheshart,62.0731,49.5733,-7.16,96,100,1.66,RU,1701479633
266,kostomuksha,64.571,30.5767,-9.42,95,99,4.02,RU,1701479634
267,meadow lakes,61.6247,-149.6011,-1.56,71,0,0.45,US,1701479634
268,mejit,10.2753,170.8646,27.57,76,75,9.1,MH,1701479634
269,tralee,52.2704,-9.7026,4.15,83,96,1.18,IE,1701479576
270,carutapera,-1.195,-46.02,25.73,84,81,2.45,BR,1701479634
271,margaret river,-33.95,115.0667,19.9,67,100,3.27,AU,1701479634
272,tromso,69.6496,18.957,-0.99,74,100,6.69,NO,1701479480
273,khovd,48.0056,91.6419,-9.78,72,21,0.83,MN,1701479635
274,teluknaga,-6.0989,106.6381,29.54,94,20,3.09,ID,1701479635
275,nipomo,35.0428,-120.476,14.73,64,0,7.72,US,1701479609
276,rongelap,11.1635,166.8941,27.79,76,100,9.01,MH,1701479636
277,monrovia,6.3005,-10.7969,26.81,86,95,3.92,LR,1701479456
278,huarmey,-10.0681,-78.1522,20.84,84,94,4.32,PE,1701479636
279,quibdo,5.6947,-76.6611,24.46,97,100,0.7,CO,1701479636
280,hilo,19.7297,-155.09,26.16,86,75,4.12,US,1701479636
281,howard springs,-12.497,131.047,33.88,79,58,3.22,AU,1701479636
282,sabang,5.8933,95.3214,26.62,85,100,8.28,ID,1701479454
283,senanga,-16.1167,23.2667,20.27,83,99,2.34,ZM,1701479637
284,mil'kovo,55.6078,37.7956,-4.73,98,84,2.59,RU,1701479637
285,golfito,8.639,-83.166,24.98,94,48,1.07,CR,1701479637
286,cekerek,40.0731,35.4947,7.76,71,92,2.54,TR,1701479637
287,lata,40.1629,-8.3327,6.71,92,0,0.34,PT,1701479637
288,antalaha,-14.9003,50.2788,24.06,90,87,1.78,MG,1701479626
289,poronaysk,49.2167,143.1167,-10.18,76,16,0.75,RU,1701479357
290,nantucket,41.2835,-70.0995,10.08,91,75,1.54,US,1701479638
291,kismayo,-0.3582,42.5454,25.82,85,100,2.01,SO,1701479577
292,haiku-pauwela,20.9219,-156.3051,26.01,76,75,5.14,US,1701479638
293,sorong,-0.8833,131.25,29.02,70,33,1.05,ID,1701479638
294,fontanelas,38.8472,-9.4372,12.27,83,7,6.21,PT,1701479638
295,ulety,51.3572,112.4849,-13.83,88,45,2.08,RU,1701479638
296,puerto carreno,6.189,-67.4859,28.48,59,93,2.96,CO,1701479638
297,varadero,23.1536,-81.2514,25.42,88,73,6.96,CU,1701479639
298,mhamid,29.82,-5.72,16.42,67,0,3.53,MA,1701479639
299,riyadh,24.6877,46.7219,14.08,36,0,2.82,SA,1701479353
300,port augusta,-32.5,137.7667,21.51,45,0,6.49,AU,1701479639
301,fale old settlement,-9.3852,-171.2468,28.3,79,100,3.32,TK,1701479569
302,hammerfest,70.6634,23.6821,-6.75,73,80,0,NO,1701479635
303,west bay,19.3667,-81.4167,28.04,85,20,3.09,KY,1701479634
304,ust-tsilma,65.441,52.1498,-7.99,98,100,0.45,RU,1701479506
305,tevriz,57.509,72.4042,-8.36,94,100,2.5,RU,1701479640
306,onega,63.9061,38.1404,-9.92,96,100,1.27,RU,1701479640
307,ritchie,-29.038,24.6028,24.56,27,94,4.16,ZA,1701479640
308,mokhsogollokh,61.4681,128.9203,-25.44,92,100,3.13,RU,1701479640
309,walvis bay,-22.9575,14.5053,17.83,81,89,6.63,NA,1701479641
310,torghay,49.6339,63.4981,0.06,69,100,4.2,KZ,1701479641
311,zeya,53.75,127.2667,-13.62,80,0,1.61,RU,1701479411
312,cascais,38.6979,-9.4215,13.02,82,7,16.09,PT,1701479641
313,markovo,57.3206,107.0881,-8.95,95,100,2.37,RU,1701479641
314,buala,-8.145,159.5921,28.65,77,100,5.65,SB,1701479641
315,jinzhou,41.1078,121.1417,-0.78,33,0,4.56,CN,1701479411
316,plastun,44.7561,136.2939,-6.87,57,10,3.29,RU,1701479642
317,talakan,50.3167,130.3667,-14.64,88,100,1.27,RU,1701479642
318,balakhta,55.38,91.6,-3.77,97,100,1.91,RU,1701479643
319,portland,45.5234,-122.6762,10.19,86,100,4.02,US,1701479509
320,arraial do cabo,-22.9661,-42.0278,23.92,91,8,0.23,BR,1701479643
321,grand rapids,42.9634,-85.6681,2.17,95,100,5.66,US,1701479460
322,moundou,8.5667,16.0833,25.67,31,33,1.32,TD,1701479643
323,mugia,43.1041,-9.2179,8.84,71,40,4.45,ES,1701479644
324,santa elena de uairen,4.6167,-61.1333,24.03,55,99,0.61,VE,1701479644
325,verkhnevilyuysk,63.4453,120.3167,-33.97,98,100,1.88,RU,1701479644
326,mariestad,58.7097,13.8237,-4.74,95,100,2.21,SE,1701479644
327,praia da vitoria,38.7333,-27.0667,17.64,79,100,7.9,PT,1701479626
328,conkal,21.0667,-89.5333,28.03,69,20,4.63,MX,1701479646
329,ilovlya,49.3033,43.9796,8.05,95,100,5.62,RU,1701479646
330,piedras blancas,-31.1862,-59.9596,20.83,95,100,2.5,AR,1701479646
331,tobelo,1.7284,128.0095,29.33,71,24,1.89,ID,1701479647
332,zonguldak,41.25,31.8333,9.29,75,0,2.68,TR,1701479647
333,zunyi,27.6867,106.9072,5.7,88,100,0.8,CN,1701479647
334,nago,26.5881,127.9761,20.25,64,91,5.04,JP,1701479647
335,lerwick,60.1545,-1.1494,2,71,80,2.52,GB,1701479648
336,bandraboua,-12.7044,45.1223,26.82,74,29,4.28,YT,1701479648
337,coahuayana de hidalgo,18.7,-103.6583,25.36,76,100,0.72,MX,1701479648
338,at taj,24.2049,23.2857,13.26,38,0,4.24,LY,1701479649
339,severo-yeniseyskiy,60.3725,93.0408,-8.57,98,100,1.34,RU,1701479649
340,middlebury (village),44.0153,-73.1673,6.24,92,100,1.54,US,1701479554
341,zhezqazghan,47.7833,67.7667,-3.68,80,0,4,KZ,1701479434
342,al bardiyah,31.7561,25.0865,16.64,49,0,2.6,LY,1701479649
343,polyarnyy,69.1989,33.4478,-14.62,99,91,2.54,RU,1701479585
344,dakhla,23.6848,-15.958,19.93,94,3,2.79,EH,1701479650
345,hirara,24.8,125.2833,20.12,75,100,10.51,JP,1701479650
346,tsiombe,-25.3,45.4833,20.33,75,70,5.59,MG,1701479560
347,san pedro pochutla,15.7333,-96.4667,27.84,84,79,1.25,MX,1701479651
348,awjilah,29.1081,21.2869,15.48,32,0,3.63,LY,1701479651
349,babayevo,59.3936,35.9371,-10.47,98,100,1.47,RU,1701479651
350,bria,6.5423,21.9863,24.82,65,100,0.95,CF,1701479494
351,renqiu,38.6989,116.0936,-0.15,28,0,1.18,CN,1701479652
352,manhattan,40.7834,-73.9662,8.3,87,100,4.47,US,1701479545
353,port moresby,-9.4431,147.1797,30.68,70,75,3.09,PG,1701479652
354,paghman,34.5875,68.9533,0.97,61,3,0.52,AF,1701479653
355,namibe,-15.1961,12.1522,21.89,81,93,2.9,AO,1701479577
356,kushiro,42.975,144.3747,-0.71,48,0,0.98,JP,1701479653
357,al qadarif,14.0349,35.3834,24.95,30,2,3.82,SD,1701479654
358,tchibanga,-2.85,11.0333,21.79,99,100,0.42,GA,1701479654
359,balikpapan,-1.2675,116.8289,24.55,100,20,2.57,ID,1701479629
360,cannes,43.55,7.0167,13.38,89,0,6.69,FR,1701479487
361,ashland,40.8167,-82.2665,7.98,98,100,3.87,US,1701479654
362,yuzhno-kurilsk,44.0306,145.8556,1.32,64,97,2.65,RU,1701479656
363,punxsutawney,40.9437,-78.9709,9.32,95,100,0.89,US,1701479656
364,qaisumah,28.3112,46.1273,14.91,42,0,3.5,SA,1701479656
365,laojunmiao,39.8333,97.7333,-3.57,21,100,1.33,CN,1701479656
366,urubamba,-13.3047,-72.1158,13.5,86,100,2.08,PE,1701479657
367,san luis,-33.295,-66.3356,21.65,59,0,7.72,AR,1701479657
368,djibouti,11.5,42.5,21.33,70,6,3.85,DJ,1701479659
369,grand-bassam,5.2118,-3.7388,24.98,86,72,3.28,CI,1701479660
370,la union,-5.4,-80.75,23.38,66,73,8.7,PE,1701479661
371,beloyarskiy,63.7119,66.6722,-21.18,100,92,1.28,RU,1701479662
372,belozersk,60.0326,37.7957,-9.45,95,94,2.24,RU,1701479662
373,puerto armuelles,8.2833,-82.8667,27.87,76,50,1.79,PA,1701479662
374,nishinoomote,30.7333,131,12.83,61,0,6.94,JP,1701479663
375,shaydon,40.6747,70.346,7.16,54,100,1.35,TJ,1701479663
376,mont-dore,-22.2833,166.5833,34.99,64,13,4.23,NC,1701479663
377,vista hermosa de negrete,20.2667,-102.4833,18.16,67,100,1.54,MX,1701479664
378,view park-windsor hills,33.9955,-118.3484,17.13,58,0,5.66,US,1701479664
379,cidreira,-30.1811,-50.2056,21.96,93,26,9.76,BR,1701479488
380,troitsko-pechorsk,62.7084,56.1964,-6.28,94,100,1.34,RU,1701479664
381,douz,33.4663,9.0203,16.57,20,100,4.61,TN,1701479664
382,port isabel,26.0734,-97.2086,22.23,87,100,3.09,US,1701479665
383,taroa,8.7058,171.2275,28.03,75,44,8.25,MH,1701479665
384,kalmunai,7.4167,81.8167,24.48,89,100,6.68,LK,1701479630
385,kununurra,-15.7667,128.7333,34.99,55,42,2.57,AU,1701479666
386,winkler,49.1817,-97.941,-3.57,73,63,1.54,CA,1701479667
387,dryden,49.7833,-92.7503,-3.84,74,100,3.09,CA,1701479667
388,pearsall,28.8922,-99.095,17.43,54,99,4.04,US,1701479668
389,nar'yan-mar,67.6713,53.087,-6.61,96,100,2.24,RU,1701479669
390,malone,44.8487,-74.2949,2.97,97,100,0.63,US,1701479669
391,lihue,21.9789,-159.3672,26.58,83,0,3.6,US,1701479669
392,guacui,-20.7756,-41.6794,20.01,96,6,0.77,BR,1701479669
393,nagqu,31.5,92,-8.49,92,100,0.51,CN,1701479670
394,sao joao da barra,-21.6403,-41.0511,23.36,93,2,3.14,BR,1701479670
395,trinity beach,-16.7888,145.6968,37.23,71,75,3.6,AU,1701479671
396,davyd-haradok,52.0566,27.2161,-5.48,94,100,1.86,BY,1701479423
397,guanica,17.9716,-66.908,26.7,48,82,3.11,PR,1701479671
398,mata-utu,-13.2816,-176.1745,28.05,80,100,6.27,WF,1701479671
399,bairnsdale,-37.8333,147.6167,17.81,91,100,2.68,AU,1701479671
400,inari,68.906,27.0288,-11.89,100,100,1.04,FI,1701479672
401,trincomalee,8.5711,81.2335,24.77,95,100,6.57,LK,1701479637
402,madang,-5.2246,145.7966,30.54,64,27,1.77,PG,1701479580
403,ad dujayl,33.8467,44.2344,13.24,50,0,4.04,IQ,1701479672
404,sassandra,4.95,-6.0833,25.49,90,29,2.03,CI,1701479673
405,mahibadhoo,3.7833,72.9667,28.18,72,31,3.05,MV,1701479673
406,nizhnyaya salda,58.0776,60.7202,-14.7,99,83,0.43,RU,1701479673
407,cill airne,52.05,-9.5167,4.73,76,100,1.68,IE,1701479674
408,kushk,33.2957,61.9522,9.83,46,90,0.76,AF,1701479674
409,nova vicosa,-17.8919,-39.3719,25.46,82,85,5.61,BR,1701479409
410,sinop,41.7711,34.8709,10.45,77,12,5.45,TR,1701479675
411,riverside,33.7333,-116.0508,15.49,40,0,0.94,US,1701479583
412,bodden town,19.2833,-81.25,28,78,20,3.09,KY,1701479675
413,ha dong,20.9725,105.7772,16.01,74,100,1.94,VN,1701479676
414,zabaykal'sk,49.6333,117.3167,-17.44,94,28,3.41,RU,1701479676
415,aqadyr,48.2553,72.8483,-0.82,58,100,2.54,KZ,1701479677
416,balykshi,47.0667,51.8667,4,100,75,7,KZ,1701479677
417,hami,42.8,93.45,-0.88,31,19,0.78,CN,1701479677
418,trondheim,63.4305,10.3951,-6.95,88,21,0.45,NO,1701479678
419,i-n-salah,27.1935,2.4607,18.47,13,100,2.5,DZ,1701479678
420,karmaskaly,54.3709,56.1837,-1.2,98,100,2.1,RU,1701479678
421,greenville,35.6127,-77.3663,19.52,89,100,5.66,US,1701479597
422,dudinka,69.4058,86.1778,-22.99,93,13,5.78,RU,1701479577
423,chibougamau,49.9168,-74.3659,-17.21,85,0,0,CA,1701479679
424,middelburg,-25.7751,29.4648,16.44,52,0,1.63,ZA,1701479679
425,new visayas,7.5233,125.6233,28.27,76,60,2.61,PH,1701479679
426,trairi,-3.2778,-39.2689,26.7,78,9,3.81,BR,1701479680
427,connell,46.6635,-118.8611,0.09,97,100,0.92,US,1701479680
428,san andres,12.5847,-81.7006,25.01,88,40,2.06,CO,1701479680
429,cockburn town,21.4612,-71.1419,26.98,74,40,2.57,TC,1701479681
430,chernyshevsk,52.5243,117.0174,-22.16,99,15,0.49,RU,1701479681
431,ta`u,-14.2336,-169.5144,27.69,82,100,6.78,AS,1701479681
432,dejen,10.1667,38.1333,10.44,60,12,1.53,ET,1701479682
433,san luis de la loma,17.2706,-100.8939,26.38,77,100,1.47,MX,1701479647
434,dalandzadgad,43.5708,104.425,-4.69,41,9,2.67,MN,1701479682
435,revda,56.801,59.9303,-10.96,99,91,0.76,RU,1701479682
436,garoowe,8.4054,48.4845,21.26,66,39,3.77,SO,1701479683
437,turki,51.987,43.2731,0.13,88,100,7.59,RU,1701479683
438,mili,6.0815,171.735,28.21,77,99,8.12,MH,1701479683
439,kapa'a,22.0752,-159.319,26.99,86,0,3.6,US,1701479684
440,san clemente del tuyu,-36.3569,-56.7235,18.32,96,100,3.62,AR,1701479684
441,cacoal,-11.4386,-61.4472,22.85,90,7,1.41,BR,1701479576
442,sheridan,44.8333,-106.9173,-2.21,72,0,2.06,US,1701479684
443,simenqian,27.4872,110.8861,6.95,80,92,0.37,CN,1701479684
444,azul,-36.777,-59.8585,18.18,95,0,2.32,AR,1701479685
445,ghadamis,30.1337,9.5007,18.7,17,100,4.77,LY,1701479685
446,ngorongoro,-3.2397,35.4875,12.93,88,100,0.48,TZ,1701479685
447,praia,14.9215,-23.5087,24.3,83,20,6.17,CV,1701479685
448,manakara,-22.1333,48.0167,21.64,89,100,4.8,MG,1701479686
449,anloga,5.7947,0.8973,27.66,81,100,4.76,GH,1701479686
450,assab,13.0092,42.7394,26,73,47,8.08,ER,1701479686
451,arys,42.4252,68.795,6.91,75,100,0.63,KZ,1701479686
452,nemuro,43.3236,145.575,0.2,64,20,3.64,JP,1701479687
453,santa elena,-2.2333,-80.85,23.46,82,86,3.86,EC,1701479687
454,jeddah,21.5169,39.2192,25.92,78,0,1.03,SA,1701479390
455,selfoss,63.9331,-20.9971,-3.66,63,0,4.92,IS,1701479687
456,murgab,37.4966,61.9714,10.32,66,95,2.05,TM,1701479687
457,palmer,42.1584,-72.3287,7.23,82,100,2.06,US,1701479688
458,port blair,11.6667,92.75,27.2,81,100,6.23,IN,1701479583
459,thinadhoo,0.5333,72.9333,27.59,78,93,5.36,MV,1701479688
460,amuntai,-2.4177,115.2494,25.71,90,100,1,ID,1701479689
461,wanning,18.8003,110.3967,23.51,90,81,6.74,CN,1701479689
462,magelang,-7.4706,110.2178,29.3,93,97,1.48,ID,1701479690
463,puerto santa,-8.9906,-78.6456,19.82,87,62,4.22,PE,1701479690
464,saldanha,-33.0117,17.9442,16.94,84,0,2.69,ZA,1701479690
465,zaria,11.1113,7.7227,20.45,20,9,3.87,NG,1701479690
466,bardai,11.65,7.2333,20.45,20,87,3.74,NG,1701479620
467,urangan,-25.3,152.9,25.86,85,55,8.36,AU,1701479418
468,sovetskaya,44.7769,41.1722,10.97,64,100,2.87,RU,1701479691
469,kosh-agach,50,88.6667,-12.05,71,100,0.45,RU,1701479691
470,acarau,-2.8856,-40.12,26.42,82,35,4.88,BR,1701479691
471,eldorado at santa fe,35.5264,-105.9347,0.18,92,0,2.57,US,1701479691
472,quellon,-43.1167,-73.6167,5.95,86,5,3.32,CL,1701479691
473,pontian kechil,1.4866,103.3896,26.67,92,100,1.43,MY,1701479691
474,kavieng,-2.5744,150.7967,27.84,75,98,0.68,PG,1701479692
475,motueka,-41.1333,173.0167,12.5,90,100,0.52,NZ,1701479470
476,nueva gerona,21.8833,-82.8,26.17,82,100,3.48,CU,1701479692
477,zhaotong,27.3167,103.7167,3.9,96,100,1.89,CN,1701479692
478,sao felipe,-14.8167,-41.3833,25.17,56,99,1.37,BR,1701479692
479,waddan,29.1614,16.139,16.26,27,88,3.08,LY,1701479692
480,al ghayzah,16.2079,52.176,23.41,37,1,2.69,YE,1701479693
481,amungan,15.3652,119.9582,29.78,60,93,2.16,PH,1701479693
482,mermoz boabab,14.7065,-17.4758,24.88,88,0,3.09,SN,1701479693
483,alaghsas,17.0187,8.0168,19.86,13,0,3.87,NE,1701479511
484,suncho corral,-27.9336,-63.4294,31.46,58,20,6.71,AR,1701479693
485,olinda,-8.0089,-34.8553,26.85,74,75,3.09,BR,1701479693
486,umuarama,-23.7664,-53.325,25.89,74,12,1.57,BR,1701479693
487,pirallahi,40.4723,50.333,13.08,84,1,10.77,AZ,1701479694
488,muravlenko,63.7898,74.523,-18.55,99,100,4.38,RU,1701479694
489,xilin hot,43.9667,116.0333,-14.24,85,5,2.96,CN,1701479694
490,dawei,14.0833,98.2,27.65,68,10,5.06,MM,1701479694
491,keetmanshoop,-26.5833,18.1333,22.92,25,83,3.61,NA,1701479694
492,kayangel,8.0823,134.7173,28.67,78,51,8.42,PW,1701479694
493,juegang,32.3174,121.1855,5.54,28,0,1.99,CN,1701479694
494,chita,52.0333,113.55,-15.06,78,30,5,RU,1701479694
495,buka,40.8108,69.1986,8.98,62,100,0.87,UZ,1701479695
496,sao jose de piranhas,-7.1206,-38.5019,29.43,37,99,0.63,BR,1701479695
497,borogontsy,62.6683,131.1683,-31.93,99,100,1.02,RU,1701479695
498,alpine,32.835,-116.7664,13.38,62,0,3.6,US,1701479695
499,aral,40.5156,81.2636,1.06,40,5,1.97,CN,1701479696
500,kerema,-7.9631,145.7785,29.27,74,91,2.63,PG,1701479696
501,fortuna,40.5982,-124.1573,11.86,97,100,3.09,US,1701479696
502,crane,31.3974,-102.3501,14.98,35,100,2.63,US,1701479696
503,santa cruz,-17.8,-63.1667,27.32,65,85,5.99,BO,1701479420
504,djambala,-2.5447,14.7533,20.01,91,100,1.25,CG,1701479696
505,remire-montjoly,4.9167,-52.2667,25.02,88,0,0,GF,1701479697
506,whitecourt,54.1502,-115.6855,-11.42,92,75,0,CA,1701479697
507,woolgoolga,-30.1106,153.2007,25.58,54,83,2.09,AU,1701479697
508,amga,60.8953,131.9608,-25.37,93,100,2.82,RU,1701479698
509,isangel,-19.55,169.2667,30.06,70,100,2.57,VU,1701479698
510,paray-le-monial,46.4546,4.1158,3.88,96,100,5.14,FR,1701479698
511,torrington,41.8007,-73.1212,6.76,94,100,0.45,US,1701479698
512,port de pollenca,39.9075,3.0814,15.16,56,2,9.42,ES,1701479698
513,monkey bay,-14.0728,34.9201,23.55,78,100,6.68,MW,1701479698
514,boguchany,58.3814,97.4531,-7.86,96,100,1.34,RU,1701479698
515,guerrero negro,27.9769,-114.0611,17.93,60,0,7.98,MX,1701479587
516,ithaca,42.4406,-76.4966,6.21,94,100,1.79,US,1701479699
517,fonte boa,-2.4959,-66.2662,23.64,98,83,0.88,BR,1701479699
518,lyantor,61.6195,72.1555,-19.45,99,93,2.91,RU,1701479699
519,las lomitas,-24.7096,-60.593,32.29,42,17,3.42,AR,1701479699
520,luderitz,-26.6481,15.1594,18.41,74,98,7.49,NA,1701479613
521,djougou,9.7085,1.666,24.62,29,91,1.29,BJ,1701479699
522,herval,-32.0236,-53.3956,21.88,97,100,2.54,BR,1701479699
523,calama,-22.4667,-68.9333,15.2,23,0,2.33,CL,1701479699
524,sungai raya,0.7,108.9,25.08,89,100,1.75,ID,1701479700
525,qarazhal,48.0078,70.7903,0.49,59,100,2.68,KZ,1701479700
526,pacific grove,36.6177,-121.9166,15.29,77,0,4.92,US,1701479700
527,chulakkurgan,43.765,69.1814,4.48,69,100,2.04,KZ,1701479700
528,natal,-5.795,-35.2094,26.36,83,20,3.09,BR,1701479555
529,lucea,18.451,-78.1736,27.92,77,79,6.01,JM,1701479700
530,rye,40.9807,-73.6837,8.86,89,100,1.54,US,1701479701
531,brooks,50.5834,-111.8851,-6.65,91,84,1.54,CA,1701479701
532,fort st. john,56.2499,-120.8529,-7.46,84,8,1.89,CA,1701479650
533,sechura,-5.5569,-80.8222,22.06,74,65,8.03,PE,1701479701
534,dwarka,22.2394,68.9678,23.18,60,0,8.17,IN,1701479702
535,kirovskiy,45.0917,133.5136,-10.82,84,14,1.68,RU,1701479703
536,yazykovo,55.2199,56.1353,-2.8,98,100,2.03,RU,1701479704
537,loen,7.7601,168.2307,28.05,77,87,8.73,MH,1701479704
538,aripuana,-9.1667,-60.6333,23.45,93,64,0.98,BR,1701479705
539,le vauclin,14.5452,-60.8388,26.03,83,40,3.09,MQ,1701479706
540,cuamba,-14.8031,36.5372,19.86,89,100,2.48,MZ,1701479706
541,labrador city,52.9463,-66.9114,-18.72,98,7,1.47,CA,1701479491
542,zabol,32.25,67.25,3.45,80,4,0.6,AF,1701479707
543,island harbour,50.724,-1.2758,0.08,92,81,2.24,GB,1701479596
544,mahina,-17.5065,-149.489,30.87,70,20,2.06,PF,1701479606
545,rufino,-34.2683,-62.7126,21.11,61,0,3.14,AR,1701479708
546,mirny,62.5353,113.9611,-32.09,100,73,1.72,RU,1701479606
547,pisco,-13.7,-76.2167,20.03,83,0,7.72,PE,1701479709
548,wangqing,43.3218,129.7634,-7.69,66,22,0.61,CN,1701479709
549,posto fiscal rolim de moura,-13.0833,-62.2667,23.97,90,38,0.67,BR,1701479709
550,oban,56.4127,-5.4706,-3.12,89,92,1.24,GB,1701479710
551,hailar,49.2,119.7,-22.19,100,99,2.39,CN,1701479710
552,greve,55.5833,12.3,-1.95,89,100,1.03,DK,1701479711
553,marechal candido rondon,-24.5561,-54.0567,26.55,76,85,2.44,BR,1701479711
554,inhambane,-23.865,35.3833,20.41,68,81,1.15,MZ,1701479576
555,boiling springs,35.0465,-81.9818,10.24,93,100,0,US,1701479422
