City_ID,City,Lat,Lng,Max Temp,Humidity,Cloudiness,Wind Speed,Country,Date
0,hadibu,12.65,54.0333,26.340000000000032,69,99,8.62,YE,1701583154
1,waitangi,-43.9535,-176.5597,15.460000000000036,91,100,4.02,NZ,1701583154
2,jamaame,0.0697,42.745,30.27000000000004,61,32,5.2,SO,1701583154
3,whitehorse,60.7161,-135.0538,-10.569999999999993,92,100,2.57,CA,1701583155
4,khanty-mansiysk,61.0042,69.0019,-14.939999999999998,72,40,3.0,RU,1701583155
5,bobo-dioulasso,11.1771,-4.2979,19.25,52,72,0.0,BF,1701583155
6,campbell,38.9501,-84.3833,9.75,85,100,1.54,US,1701583155
7,ribeira grande,38.5167,-28.7,14.760000000000048,59,91,9.43,PT,1701583155
8,laguna,38.421,-121.4238,14.160000000000025,83,40,4.12,US,1701583155
9,adamstown,-25.066,-130.1015,22.510000000000048,87,33,5.85,PN,1701583155
10,el bauga,18.262,33.9081,25.07000000000005,62,0,4.88,SD,1701583156
11,invercargill,-46.4,168.35,11.100000000000023,55,4,6.94,NZ,1701583154
12,port-aux-francais,-49.35,70.2167,5.360000000000014,90,80,17.55,TF,1701583156
13,weno,7.4515,151.8468,28.629999999999995,77,13,7.44,FM,1701583156
14,tura,25.5198,90.2201,27.28000000000003,42,33,1.17,IN,1701583156
15,ancud,-41.8697,-73.8203,5.710000000000036,84,6,2.07,CL,1701583156
16,ushuaia,-54.8,-68.3,3.8100000000000023,81,75,10.8,AR,1701583157
17,isafjordur,66.0755,-23.124,-0.37999999999999545,88,100,7.2,IS,1701583157
18,stanley,54.868,-1.6985,-0.8199999999999932,93,92,1.18,GB,1701583157
19,aykhal,66.0,111.5,-37.48999999999998,100,56,2.01,RU,1701583157
20,blackmans bay,-43.0167,147.3167,18.07000000000005,78,100,3.45,AU,1701583157
21,thompson,55.7435,-97.8558,-9.909999999999968,92,75,1.03,CA,1701583157
22,brookings,44.3114,-96.7984,-0.3499999999999659,85,75,4.63,US,1701583042
23,ansan-si,37.3236,126.8219,6.930000000000007,48,3,2.38,KR,1701583158
24,ust-nera,64.5667,143.2,-40.50999999999999,100,93,1.02,RU,1701583158
25,illizi,26.4833,8.4667,11.890000000000043,19,0,1.21,DZ,1701583158
26,tiksi,71.6872,128.8694,-24.129999999999967,99,100,4.82,RU,1701583158
27,kodiak,57.79,-152.4072,5.730000000000018,81,100,8.23,US,1701583159
28,nuuk,64.1835,-51.7216,-3.4499999999999886,84,100,2.88,GL,1701583159
29,pacific grove,36.6177,-121.9166,11.82000000000005,89,0,3.6,US,1701583159
30,tomaszow mazowiecki,51.5313,20.0086,-2.8799999999999955,96,100,4.33,PL,1701583159
31,rio grande,-32.035,-52.0986,17.75,94,39,2.35,BR,1701583159
32,horta,38.5333,-28.6333,14.050000000000011,60,90,8.88,PT,1701583160
33,nouadhibou,20.931,-17.0347,18.99000000000001,94,75,5.14,MR,1701583160
34,happy valley-goose bay,53.3168,-60.3315,-16.829999999999984,78,40,4.63,CA,1701583160
35,bilibino,68.0546,166.4372,-26.099999999999966,99,84,0.79,RU,1701583161
36,vadso,70.0744,29.7487,0.09000000000003183,93,100,5.14,NO,1701583161
37,colonia,50.9333,6.95,1.57000000000005,81,100,2.57,DE,1701583161
38,grytviken,-54.2811,-36.5092,1.8500000000000227,79,67,6.88,GS,1701583161
39,zaozersk,69.4005,32.4476,-1.5600000000000023,94,100,5.23,RU,1701583161
40,holualoa,19.6228,-155.9522,23.910000000000025,89,20,5.66,US,1701582865
41,at taj,24.2049,23.2857,14.210000000000036,40,4,3.06,LY,1701583162
42,kailua-kona,19.6406,-155.9956,25.980000000000018,89,20,5.66,US,1701583162
43,hasaki,35.7333,140.8333,15.160000000000025,48,7,9.53,JP,1701583162
44,bethel,41.3712,-73.414,8.340000000000032,89,100,0.0,US,1701583158
45,punta arenas,-53.15,-70.9167,5.060000000000002,70,75,3.09,CL,1701582960
46,nar'yan-mar,67.6713,53.087,-12.71999999999997,94,100,4.92,RU,1701583162
47,lebu,-37.6167,-73.65,9.57000000000005,72,0,8.74,CL,1701583162
48,khandyga,62.6667,135.6,-35.849999999999966,99,100,1.04,RU,1701583163
49,ouadda,8.0777,22.4007,23.920000000000016,60,82,1.16,CF,1701583163
50,susuman,62.7833,148.1667,-39.559999999999974,100,96,0.42,RU,1701583163
51,pierre,44.3683,-100.351,-2.6200000000000045,93,0,1.34,US,1701583163
52,as sulayyil,20.4607,45.5779,18.140000000000043,30,3,5.02,SA,1701583163
53,lihue,21.9789,-159.3672,23.77000000000004,85,20,3.09,US,1701583109
54,kapa'a,22.0752,-159.319,24.180000000000007,89,20,3.09,US,1701583164
55,saldanha,-33.0117,17.9442,15.03000000000003,69,84,3.84,ZA,1701583164
56,galliano,29.4422,-90.2992,23.0,94,100,3.6,US,1701583164
57,tralee,52.2704,-9.7026,3.740000000000009,87,68,1.73,IE,1701583164
58,fale old settlement,-9.3852,-171.2468,28.210000000000036,73,100,5.62,TK,1701583164
59,sur,22.5667,59.5289,26.04000000000002,51,0,2.25,OM,1701583164
60,badger,64.8,-147.5333,-22.069999999999965,81,0,0.0,US,1701583165
61,aasiaat,68.7098,-52.8699,-13.239999999999952,84,39,1.64,GL,1701583165
62,puerto natales,-51.7236,-72.4875,1.6000000000000227,91,41,3.01,CL,1701583165
63,chilaw,7.5758,79.7953,30.010000000000048,76,51,4.66,LK,1701583165
64,papatowai,-46.5619,169.4708,11.110000000000014,57,11,7.55,NZ,1701583165
65,edinburgh of the seven seas,-37.0676,-12.3116,13.860000000000014,77,100,2.52,SH,1701583166
66,kapuskasing,49.4169,-82.4331,-12.949999999999989,92,40,1.03,CA,1701583082
67,enewetak,11.3474,162.3373,27.760000000000048,78,93,8.72,MH,1701583166
68,anadyr,64.75,177.4833,-19.71999999999997,83,20,3.0,RU,1701583166
69,port elizabeth,-33.918,25.5701,21.840000000000032,82,100,2.06,ZA,1701583166
70,sovet,38.0467,69.5882,13.010000000000048,22,88,1.24,TJ,1701583166
71,hamilton,39.1834,-84.5333,9.439999999999998,87,100,1.54,US,1701583166
72,gisborne,-38.6533,178.0042,17.629999999999995,77,100,2.02,NZ,1701583167
73,west island,-12.1568,96.8225,28.99000000000001,65,66,5.66,CC,1701583167
74,iqaluit,63.7506,-68.5145,-5.149999999999977,68,100,4.63,CA,1701583167
75,camana,-16.6228,-72.7111,18.970000000000027,85,46,3.36,PE,1701583167
76,longyearbyen,78.2186,15.6401,-6.089999999999975,86,75,4.63,SJ,1701583167
77,albany,42.6001,-73.9662,5.960000000000036,93,100,0.89,US,1701583167
78,utrik,11.2278,169.8474,27.08000000000004,72,90,7.49,MH,1701583168
79,luwuk,-0.9516,122.7875,30.230000000000018,71,58,1.14,ID,1701583168
80,nemuro,43.3236,145.575,4.300000000000011,55,25,4.76,JP,1701583168
81,kamennogorsk,60.9545,29.1339,-6.92999999999995,96,99,1.02,RU,1701583168
82,olonkinbyen,70.9221,-8.7187,0.20000000000004547,94,91,7.46,SJ,1701583168
83,fortuna,40.5982,-124.1573,13.53000000000003,98,100,1.54,US,1701583168
84,port lincoln,-34.7333,135.8667,21.610000000000014,51,70,1.76,AU,1701583124
85,mount gambier,-37.8333,140.7667,20.99000000000001,52,22,4.21,AU,1701582948
86,withernsea,53.7311,0.0335,2.830000000000041,91,100,7.94,GB,1701583169
87,buarcos,40.166,-8.8768,7.189999999999998,85,57,4.01,PT,1701583169
88,santa cruz cabralia,-16.2781,-39.0247,25.129999999999995,88,20,1.03,BR,1701583169
89,sikonge,-5.6333,32.7667,22.920000000000016,76,81,0.85,TZ,1701583169
90,hacienda huancane,-15.8222,-70.8856,4.439999999999998,44,13,1.8,PE,1701583169
91,irymple,-34.25,142.1667,29.49000000000001,29,3,3.09,AU,1701583170
92,college,64.8569,-147.8028,-22.029999999999973,79,20,0.0,US,1701583170
93,suoyarvi,62.0833,32.35,-16.44999999999999,100,93,0.6,RU,1701583170
94,egilsstadir,65.2653,-14.3948,-3.0499999999999545,86,75,4.63,IS,1701583170
95,rio san juan,19.6439,-70.0763,23.980000000000018,86,81,5.65,DO,1701583170
96,georgetown,5.4112,100.3354,30.960000000000036,74,20,4.63,MY,1701583170
97,hermanus,-34.4187,19.2345,17.910000000000025,66,60,5.22,ZA,1701583170
98,liberty,31.8335,-81.5004,21.060000000000002,47,20,1.54,US,1701583171
99,hami,42.8,93.45,3.730000000000018,25,27,0.56,CN,1701583171
100,naama,33.2667,-0.3167,-0.37000000000000455,91,14,1.69,DZ,1701583171
101,marsabit,2.3284,37.9899,21.82000000000005,58,14,5.31,KE,1701583171
102,mangai,-4.05,19.5333,21.74000000000001,95,91,1.42,CD,1701583171
103,progreso,21.2833,-89.6667,25.060000000000002,86,33,3.72,MX,1701583171
104,usogorsk,63.4106,48.6872,-16.849999999999966,99,98,1.36,RU,1701583172
105,queenstown,-31.8976,26.8753,24.960000000000036,37,98,3.98,ZA,1701583172
106,kavaratti,10.5669,72.642,28.5,73,100,5.85,IN,1701583172
107,yellowknife,62.456,-114.3525,-19.70999999999998,84,75,2.06,CA,1701583172
108,flying fish cove,-10.4217,105.6791,28.82000000000005,65,40,4.63,CX,1701583172
109,port mathurin,-19.6833,63.4167,25.640000000000043,86,84,8.8,MU,1701583172
110,canutama,-6.5339,-64.3831,23.160000000000025,99,99,1.21,BR,1701583173
111,praia da vitoria,38.7333,-27.0667,14.140000000000043,62,20,9.11,PT,1701583173
112,mkushi,-13.6202,29.3939,24.24000000000001,53,38,3.78,ZM,1701583173
113,dakoro,14.5106,6.765,17.730000000000018,14,21,3.59,NE,1701583173
114,juneau,58.3019,-134.4197,0.6100000000000136,97,75,1.54,US,1701583173
115,nabire,-3.3667,135.4833,30.340000000000032,66,51,2.45,ID,1701583173
116,santa ana,33.7456,-117.8678,13.910000000000025,83,0,2.57,US,1701583103
117,chonchi,-42.6128,-73.8092,5.6200000000000045,88,26,1.08,CL,1701583174
118,ribeira brava,32.65,-17.0667,18.890000000000043,76,29,1.65,PT,1701583174
119,boda,4.3189,17.4695,22.03000000000003,91,100,0.63,CF,1701583174
120,gulf shores,30.246,-87.7008,22.03000000000003,80,100,6.17,US,1701583000
121,constantia,44.1833,28.65,10.390000000000043,71,100,3.68,RO,1701582996
122,filadelfia,39.9523,-75.1638,10.0,97,100,0.45,US,1701583174
123,ronneby,56.21,15.276,-3.7199999999999704,93,100,3.09,SE,1701583175
124,port alfred,-33.5906,26.891,19.54000000000002,94,99,1.34,ZA,1701583090
125,el granada,37.5027,-122.4694,14.620000000000005,93,100,0.0,US,1701583175
126,cill airne,52.05,-9.5167,3.2700000000000387,94,95,1.59,IE,1701583175
127,namibe,-15.1961,12.1522,22.670000000000016,86,100,1.23,AO,1701583175
128,qamdo,31.1667,97.2333,-0.7199999999999704,44,87,2.61,CN,1701583175
129,shillong,25.5689,91.8831,21.360000000000014,38,60,1.1,IN,1701583176
130,sisimiut,66.9395,-53.6735,-6.029999999999973,76,95,3.01,GL,1701583176
131,hammerfest,70.6634,23.6821,-2.75,80,100,1.54,NO,1701583176
132,betio village,1.358,172.9211,30.02000000000004,77,99,4.96,KI,1701583176
133,st. john's,47.5649,-52.7093,2.7600000000000477,92,75,4.47,CA,1701582937
134,talnakh,69.4865,88.3972,-33.04999999999998,90,13,0.81,RU,1701583176
135,bornu yassu,12.2774,12.5552,21.77000000000004,23,72,3.18,NG,1701583177
136,igarka,67.4667,86.5833,-30.43999999999997,97,54,4.28,RU,1701583177
137,hirna,9.2167,41.1,18.460000000000036,28,64,1.98,ET,1701583177
138,vila franca do campo,37.7167,-25.4333,13.230000000000018,72,100,7.47,PT,1701583177
139,tazovsky,67.4667,78.7,-28.109999999999985,92,6,5.27,RU,1701583177
140,awjilah,29.1081,21.2869,15.520000000000039,51,100,5.1,LY,1701583177
141,kostomuksha,64.571,30.5767,-12.759999999999991,99,94,1.34,RU,1701583177
142,balezino,57.9796,53.0106,-13.819999999999993,97,96,2.65,RU,1701583178
143,alofi,-19.0595,-169.9187,26.939999999999998,78,21,8.12,NU,1701583178
144,belmonte,-15.8631,-38.8828,24.220000000000027,86,12,2.99,BR,1701583178
145,kayangel,8.0823,134.7173,28.82000000000005,78,73,8.09,PW,1701583178
146,beledweyne,4.7358,45.2036,28.390000000000043,45,90,8.23,SO,1701583178
147,kostyantynivka,48.5277,37.7069,11.150000000000034,84,100,7.6,UA,1701583178
148,hawaiian paradise park,19.5933,-154.9731,23.350000000000023,97,100,0.0,US,1701583178
149,khovd,48.0056,91.6419,-3.2999999999999545,55,96,0.89,MN,1701583179
150,atafu village,-8.5421,-172.5159,28.180000000000007,72,99,5.54,TK,1701583179
151,ilulissat,69.2167,-51.1,-13.659999999999968,72,45,2.82,GL,1701583179
152,norala,6.5225,124.6592,30.629999999999995,68,99,1.38,PH,1701583179
153,fernie,49.5,-115.0687,3.0500000000000114,99,100,0.77,CA,1701583179
154,sinop,41.7711,34.8709,11.910000000000025,64,99,6.06,TR,1701583179
155,puerto baquerizo moreno,-0.9,-89.6,23.57000000000005,85,98,5.15,EC,1701583179
156,nema,57.5067,50.5011,-17.20999999999998,98,44,1.99,RU,1701583179
157,an nuhud,12.7,28.4333,23.260000000000048,28,65,9.05,SD,1701583180
158,kathmandu,27.7167,85.3167,19.120000000000005,48,20,1.03,NP,1701582990
159,kargasok,59.0556,80.8572,-9.45999999999998,95,100,4.47,RU,1701583180
160,margaret river,-33.95,115.0667,20.430000000000007,65,8,5.05,AU,1701583180
161,bredasdorp,-34.5322,20.0403,18.78000000000003,56,79,4.67,ZA,1701583180
162,zdvinsk,54.7021,78.661,0.8000000000000114,98,100,9.05,RU,1701583180
163,saipan,15.1355,145.701,30.390000000000043,66,20,8.23,MP,1701583180
164,tsiombe,-25.3,45.4833,25.590000000000032,39,7,7.8,MG,1701583181
165,kuching,1.55,110.3333,30.120000000000005,90,40,3.6,MY,1701582992
166,gobabis,-22.45,18.9667,22.510000000000048,52,85,4.49,NA,1701583181
167,gamba,-2.65,10.0,24.360000000000014,88,100,1.73,GA,1701583181
168,yuzhno-kurilsk,44.0306,145.8556,1.32000000000005,64,57,2.45,RU,1701583181
169,sao vicente,-23.9631,-46.3919,29.100000000000023,26,63,1.05,BR,1701583181
170,nogliki,51.8333,143.1667,-12.589999999999975,77,9,3.58,RU,1701583181
171,port saint john's,-31.6229,29.5448,25.379999999999995,68,80,2.33,ZA,1701583181
172,magadan,59.5667,150.8,-17.569999999999965,85,98,2.83,RU,1701582902
173,santa terezinha,-29.9002,-50.0904,22.480000000000018,98,100,1.43,BR,1701583182
174,oroqen zizhiqi,50.5667,123.7167,-7.319999999999993,66,100,1.79,CN,1701583182
175,hilo,19.7297,-155.09,23.470000000000027,98,100,1.79,US,1701583182
176,sarakhs,36.5449,61.1577,18.950000000000045,26,0,4.41,IR,1701583182
177,labytnangi,66.6572,66.4183,-29.50999999999999,98,24,2.09,RU,1701583182
178,sassandra,4.95,-6.0833,25.33000000000004,88,3,0.94,CI,1701583183
179,luanda,-8.8368,13.2343,26.0,83,40,2.06,AO,1701583183
180,kismayo,-0.3582,42.5454,29.140000000000043,69,44,6.1,SO,1701583183
181,san matias,-16.3667,-58.4,25.150000000000034,80,76,2.24,BO,1701583183
182,gazi,35.3253,25.0669,18.890000000000043,65,20,7.72,GR,1701583183
183,kudahuvadhoo,2.6708,72.8944,27.58000000000004,79,96,4.78,MV,1701583183
184,shuangjiang,26.1547,109.7138,7.020000000000039,93,100,1.61,CN,1701583183
185,sarmiento,-45.5882,-69.07,5.980000000000018,56,13,6.98,AR,1701583183
186,mulki,13.1,74.8,30.600000000000023,58,20,1.54,IN,1701583184
187,shimoda,34.6667,138.95,14.200000000000045,57,3,12.02,JP,1701583184
188,mitsamiouli,-11.3847,43.2844,27.77000000000004,72,75,1.11,KM,1701583184
189,pennathur,12.25,79.2333,26.930000000000007,76,100,6.72,IN,1701583184
190,udachny,66.4167,112.4,-40.96999999999997,100,86,1.27,RU,1701583184
191,castelnaudary,43.3183,1.9545,1.650000000000034,90,43,0.45,FR,1701583184
192,vilyuchinsk,52.9306,158.4028,-6.7099999999999795,81,72,1.85,RU,1701583184
193,vorkuta,67.5,64.0,-24.67999999999998,99,81,1.9,RU,1701583184
194,namanga,-2.5433,36.7905,21.439999999999998,73,87,2.61,KE,1701583185
195,labrador city,52.9463,-66.9114,-24.049999999999983,77,100,2.06,CA,1701583185
196,luderitz,-26.6481,15.1594,20.49000000000001,55,1,8.61,NA,1701583185
197,bakanas,44.8081,76.2772,11.710000000000036,36,82,7.22,KZ,1701583185
198,kruisfontein,-34.0033,24.7314,20.49000000000001,62,42,0.71,ZA,1701583185
199,maumere,-8.6199,122.2111,30.129999999999995,69,40,0.78,ID,1701583185
200,naze,28.3667,129.4833,16.510000000000048,55,98,4.45,JP,1701583186
201,huicungo,-7.2833,-76.8,23.28000000000003,83,89,0.17,PE,1701583186
202,tolanaro,-25.0319,46.9987,25.04000000000002,53,20,6.69,MG,1701583186
203,keflavik,64.0049,-22.5624,-2.759999999999991,80,0,2.57,IS,1701583186
204,la carlota,10.4233,122.9208,30.78000000000003,63,60,4.79,PH,1701583186
205,barra de santo antonio,-9.4047,-35.5072,23.600000000000023,87,82,3.04,BR,1701583187
206,midvagur,62.0511,-7.1939,0.4600000000000364,86,40,0.51,FO,1701583187
207,nagrota,32.05,76.0833,20.74000000000001,34,4,1.17,IN,1701583187
208,kalmunai,7.4167,81.8167,27.960000000000036,78,99,1.32,LK,1701583187
209,vangaindrano,-23.35,47.6,23.610000000000014,54,46,3.05,MG,1701583187
210,sola,-13.8833,167.55,26.980000000000018,85,98,9.41,VU,1701583187
211,kirensk,57.7853,108.1119,-6.689999999999998,94,98,3.58,RU,1701583188
212,mercedes,-34.6515,-59.4307,17.140000000000043,62,87,7.89,AR,1701583188
213,lobujya,27.95,86.8167,-6.96999999999997,35,0,2.11,NP,1701583188
214,pariaman,-0.619,100.12,29.03000000000003,71,93,2.34,ID,1701583188
215,avarua,-21.2078,-159.775,24.03000000000003,83,40,3.6,CK,1701583188
216,saint-pierre,-21.3393,55.4781,28.650000000000034,83,100,3.6,RE,1701583188
217,cerro largo,-28.1486,-54.7381,20.710000000000036,97,100,1.71,BR,1701583189
218,odda,60.0691,6.5457,0.9800000000000182,95,100,1.72,NO,1701583189
219,hithadhoo,-0.6,73.0833,27.860000000000014,72,8,4.72,MV,1701583189
220,carupano,10.6678,-63.2585,24.230000000000018,90,21,2.66,VE,1701583189
221,selfoss,63.9331,-20.9971,-1.6399999999999864,58,100,4.58,IS,1701583189
222,petropavlovsk-kamchatsky,53.0452,158.6483,-7.529999999999973,76,75,3.58,RU,1701583189
223,gaspe,48.8334,-64.4819,-3.0499999999999545,80,0,4.12,CA,1701583189
224,hluti,-27.2167,31.6167,20.79000000000002,67,78,2.98,SZ,1701583190
225,pospelikha,51.95,81.7667,2.0200000000000387,97,100,13.85,RU,1701583190
226,bela,25.9333,81.9833,28.010000000000048,30,0,1.58,IN,1701583190
227,papao,-17.75,-149.55,28.82000000000005,79,90,10.19,PF,1701583190
228,vernon,50.2581,-119.2691,-0.6899999999999977,90,31,3.09,CA,1701583190
229,la ronge,55.1001,-105.2842,-8.859999999999957,92,40,2.57,CA,1701583190
230,tindouf,27.6711,-8.1474,10.25,66,0,3.09,DZ,1701583190
231,aitape,-3.1374,142.3475,29.400000000000034,73,48,2.41,PG,1701583191
232,crane,31.3974,-102.3501,9.890000000000043,32,0,2.76,US,1701583191
233,jamestown,42.097,-79.2353,6.3700000000000045,100,100,2.57,US,1701583033
234,flekkefjord,58.2971,6.6607,-1.6999999999999886,95,100,3.4,NO,1701582939
235,isiro,2.7739,27.616,22.060000000000002,92,54,0.33,CD,1701583191
236,mikumi,-7.4041,36.9831,22.439999999999998,94,100,0.52,TZ,1701583191
237,mount isa,-20.7333,139.5,35.870000000000005,32,63,6.17,AU,1701583191
238,garachico,28.7781,-17.7646,17.060000000000002,82,20,4.12,ES,1701583192
239,carbonear,47.7332,-53.2148,3.0100000000000477,93,100,3.75,CA,1701583192
240,al jawf,29.5,38.75,16.100000000000023,44,0,4.39,SA,1701583192
241,brookhaven,31.5791,-90.4407,16.560000000000002,99,100,1.83,US,1701583192
242,troitskoye,52.9821,84.6757,2.5300000000000296,89,100,8.02,RU,1701583192
243,san ignacio de velasco,-16.3667,-60.95,23.680000000000007,75,54,1.97,BO,1701583192
244,afaahiti,-17.75,-149.2833,27.930000000000007,83,95,9.02,PF,1701583192
245,north bend,43.4065,-124.2243,13.840000000000032,100,100,3.6,US,1701583193
246,cidade velha,14.9167,-23.6167,24.260000000000048,83,40,8.75,CV,1701583193
247,altay,47.8667,88.1167,-0.67999999999995,73,94,0.91,CN,1701583193
248,nikolayevsk-on-amure,53.1406,140.73,-15.699999999999989,91,10,1.45,RU,1701583193
249,cacak,43.8914,20.3497,2.7800000000000296,84,100,3.88,RS,1701583193
250,achacachi,-16.05,-68.6833,7.689999999999998,84,100,3.1,BO,1701583193
251,el calafate,-50.3408,-72.2768,3.890000000000043,68,10,4.54,AR,1701583194
252,muang phonsavan,19.45,103.2167,24.590000000000032,56,57,1.58,LA,1701583194
253,zelenchukskaya,43.858,41.5894,10.310000000000002,58,40,2.58,RU,1701583194
254,horki,54.2861,30.9842,-5.939999999999998,95,100,5.6,BY,1701583194
255,chaykovskiy,56.7686,54.1148,-13.45999999999998,97,81,1.91,RU,1701583194
256,broken hill,-31.95,141.4333,28.49000000000001,18,2,3.47,AU,1701582911
257,wailua homesteads,22.0669,-159.378,23.24000000000001,90,14,1.87,US,1701583194
258,san andres,12.5847,-81.7006,29.010000000000048,100,20,5.14,CO,1701583081
259,taoudenni,22.6783,-3.9836,20.350000000000023,42,0,2.52,ML,1701583195
260,baker city,44.7749,-117.8344,1.4399999999999977,90,20,0.0,US,1701582904
261,playa del ingles,27.7567,-15.5787,19.860000000000014,83,17,1.79,ES,1701582970
262,ayr,55.4627,-4.6339,0.8400000000000318,93,75,0.0,GB,1701583195
263,romblon,12.5751,122.2708,27.680000000000007,78,30,6.77,PH,1701583195
264,wailea,19.8858,-155.123,23.5,98,100,0.0,US,1701583195
265,jirja,26.3383,31.8916,12.120000000000005,87,0,2.06,EG,1701583195
266,arawa,-6.2132,155.5367,27.52000000000004,90,100,1.38,PG,1701583196
267,murzuq,25.9155,13.9184,15.900000000000034,25,32,3.54,LY,1701583196
268,kolosovka,56.4678,73.611,0.17000000000001592,99,100,5.04,RU,1701583196
269,fort bragg,35.139,-79.006,17.910000000000025,90,100,0.0,US,1701583196
270,telimele,10.9167,-13.3333,20.189999999999998,89,96,0.11,GN,1701583196
271,magnolia,33.2671,-93.2393,7.6299999999999955,84,100,2.14,US,1701583196
272,bintulu,3.1667,113.0333,32.23000000000002,70,40,3.09,MY,1701583196
273,klyuchi,52.2667,79.1667,2.830000000000041,98,100,10.58,RU,1701583196
274,nova vicosa,-17.8919,-39.3719,24.950000000000045,82,6,4.73,BR,1701583197
275,robore,-18.3333,-59.75,25.04000000000002,70,49,1.91,BO,1701583197
276,salekhard,66.53,66.6019,-29.899999999999977,98,24,2.66,RU,1701583197
277,brasilia,-15.7797,-47.9297,20.510000000000048,83,0,2.06,BR,1701583197
278,coroata,-4.13,-44.1242,23.189999999999998,98,70,1.46,BR,1701583197
279,benghazi,32.1167,20.0667,17.30000000000001,47,97,7.75,LY,1701583197
280,inverurie,57.2845,-2.3774,-0.20999999999997954,92,100,2.57,GB,1701583197
281,chos malal,-37.3781,-70.2709,9.760000000000048,34,0,1.16,AR,1701583198
282,okahao,-17.885,15.0667,23.420000000000016,69,100,1.7,NA,1701583198
283,tabas,33.5959,56.9244,17.640000000000043,23,0,1.35,IR,1701583198
284,carnarvon,-24.8667,113.6333,27.810000000000002,52,0,8.36,AU,1701583198
285,arkhangel'sk,64.5401,40.5433,-15.939999999999998,91,75,0.0,RU,1701583198
286,cestos city,5.46,-9.5828,25.82000000000005,85,10,2.66,LR,1701583198
287,mahibadhoo,3.7833,72.9667,28.560000000000002,74,65,4.97,MV,1701583198
288,verkhnevilyuysk,63.4453,120.3167,-42.66999999999999,100,70,0.51,RU,1701583198
289,mandalgovi,45.7625,106.2708,-0.8299999999999841,40,14,4.89,MN,1701583199
290,newman,37.3138,-121.0208,11.270000000000039,84,92,1.08,US,1701583110
291,maxixe,-23.8597,35.3472,26.900000000000034,50,40,0.0,MZ,1701583199
292,heihe,50.2441,127.4902,-4.67999999999995,70,100,5.29,CN,1701583199
293,songea,-10.6833,35.65,23.430000000000007,68,99,1.28,TZ,1701583199
294,kati,12.7441,-8.0726,21.670000000000016,26,97,1.63,ML,1701583199
295,kerikeri,-35.2268,173.9474,20.510000000000048,92,100,2.82,NZ,1701583066
296,paragominas,-2.9667,-47.4833,22.090000000000032,98,65,1.3,BR,1701583199
297,xinyuan,37.3,99.0,-2.349999999999966,26,38,6.2,CN,1701583200
298,bindki,26.0333,80.6,26.810000000000002,35,18,2.25,IN,1701583200
299,pingliang,35.5392,106.6861,6.2000000000000455,38,62,1.13,CN,1701583200
300,mossel bay,-34.1831,22.146,17.960000000000036,77,72,3.86,ZA,1701583201
301,berea,41.3662,-81.8543,7.960000000000036,96,100,0.45,US,1701583142
302,palikir - national government center,6.9248,158.1611,27.82000000000005,79,49,7.4,FM,1701583202
303,ambovombe,-25.1667,46.0833,24.230000000000018,46,1,7.93,MG,1701583205
304,baykal'sk,51.5058,104.1469,-1.1099999999999568,76,97,3.26,RU,1701583206
305,merritt island,28.5392,-80.672,24.49000000000001,94,0,2.57,US,1701582933
306,nguigmi,14.2495,13.1092,22.470000000000027,20,61,4.55,NE,1701583210
307,kedrovyy,56.1667,91.8167,-3.769999999999982,85,99,4.38,RU,1701583211
308,tyup,42.7276,78.3648,4.900000000000034,50,6,1.24,KG,1701583212
309,sake,-1.5736,29.045,19.340000000000032,86,50,0.59,CD,1701583213
310,jiujiang,29.7333,115.9833,13.510000000000048,27,100,2.11,CN,1701583213
311,thunder bay,48.4001,-89.3168,-7.009999999999991,93,75,1.03,CA,1701583064
312,port pirie,-33.1833,138.0167,29.650000000000034,22,8,0.57,AU,1701583214
313,bahia honda,22.9036,-83.1592,23.420000000000016,90,58,1.58,CU,1701583215
314,fontanelas,38.8472,-9.4372,9.53000000000003,86,61,2.37,PT,1701583215
315,al hilaliyya,14.9398,33.234,27.110000000000014,45,19,6.11,SD,1701583215
316,salaga,8.5508,-0.5188,25.52000000000004,68,28,1.51,GH,1701583216
317,sovetskiy,61.3614,63.5842,-15.060000000000002,94,100,1.79,RU,1701583216
318,mont-de-marsan,44.0,-0.6667,3.2100000000000364,60,0,1.54,FR,1701583216
319,umm kaddadah,13.6017,26.6876,21.850000000000023,20,39,7.46,SD,1701583217
320,lanxi,29.2195,119.477,12.360000000000014,40,100,1.47,CN,1701583218
321,finike,36.295,30.1406,16.890000000000043,79,100,1.28,TR,1701583218
322,sirte,31.2089,16.5887,17.680000000000007,29,9,5.17,LY,1701583218
323,puerto ayora,-0.7393,-90.3518,24.189999999999998,93,92,3.13,EC,1701583219
324,baise city,23.8997,106.6133,14.640000000000043,83,100,0.44,CN,1701583219
325,villa gesell,-37.2639,-56.973,12.810000000000002,62,57,8.27,AR,1701583219
326,puerto ayacucho,5.6639,-67.6236,24.58000000000004,81,25,1.4,VE,1701583220
327,aldinga beach,-35.2793,138.4604,30.660000000000025,38,31,2.58,AU,1701583220
328,san pedro pochutla,15.7333,-96.4667,23.640000000000043,77,41,1.32,MX,1701583220
329,sanctuary point,-35.1114,150.629,21.220000000000027,71,56,6.44,AU,1701583221
330,gadzhiyevo,69.2551,33.3362,-1.1099999999999568,90,100,6.03,RU,1701583221
331,portland,45.5234,-122.6762,9.330000000000041,95,100,3.09,US,1701583208
332,timbuktu,16.7735,-3.0074,23.0,11,45,4.66,ML,1701583221
333,oltiariq,40.3919,71.4742,11.860000000000014,35,0,0.87,UZ,1701583222
334,keetmanshoop,-26.5833,18.1333,22.510000000000048,37,0,4.12,NA,1701583222
335,altamira,-3.2033,-52.2064,22.730000000000018,97,89,1.52,BR,1701583222
336,ketchikan,55.3422,-131.6461,5.990000000000009,99,100,3.75,US,1701583223
337,reggane,26.7158,0.1714,17.49000000000001,27,0,1.43,DZ,1701583223
338,dudinka,69.4058,86.1778,-29.349999999999966,91,20,5.1,RU,1701583223
339,tongging,2.8969,98.5262,22.57000000000005,89,98,2.01,ID,1701583224
340,kaa-khem,51.6833,94.7333,-14.21999999999997,89,95,0.7,RU,1701583225
341,palapag,12.5458,125.1147,27.55000000000001,86,57,4.7,PH,1701583225
342,westport,41.1415,-73.3579,10.050000000000011,97,99,1.79,US,1701583210
343,concordia,-31.393,-58.0209,19.32000000000005,100,29,0.89,AR,1701583226
344,la passe,45.5549,-0.8967,-0.8700000000000045,89,89,5.0,FR,1701583226
345,kingscliff,-28.2667,153.5667,29.29000000000002,74,41,4.12,AU,1701583226
346,arafat,21.3594,39.9664,26.55000000000001,65,99,0.9,SA,1701583226
347,alice springs,-23.7,133.8833,36.75,13,3,2.57,AU,1701583227
348,aldama,22.9167,-98.0667,21.390000000000043,76,100,2.08,MX,1701583227
349,lorengau,-2.0226,147.2712,29.400000000000034,69,100,1.29,PG,1701583227
350,kurumkan,54.3,110.3,-7.7099999999999795,91,71,0.45,RU,1701583228
351,san antonio de pale,-1.4014,5.6325,26.590000000000032,82,77,2.79,GQ,1701583228
352,shache,38.4167,77.2406,7.0,24,99,1.7,CN,1701583228
353,bikenibeu village,1.3673,173.1241,29.980000000000018,74,75,4.12,KI,1701583228
354,santa cruz,-17.8,-63.1667,26.700000000000045,78,40,3.09,BO,1701583229
355,island harbour,50.724,-1.2758,8.850000000000023,92,100,2.68,GB,1701583229
356,mamanguape,-6.8386,-35.1261,25.180000000000007,92,49,1.73,BR,1701583229
357,taltal,-25.4,-70.4833,16.670000000000016,83,2,0.7,CL,1701583221
358,sitka,57.0531,-135.33,2.990000000000009,91,66,2.8,US,1701583229
359,banlung,13.7468,107.0045,32.200000000000045,43,87,3.93,KH,1701583230
360,new prague,44.5433,-93.5761,1.0100000000000477,85,100,3.29,US,1701583146
361,vorgashor,67.5833,63.95,-25.059999999999974,99,63,1.92,RU,1701583230
362,howrah,22.5892,88.3103,27.0,65,40,4.12,IN,1701583230
363,east london,-33.0153,27.9116,20.52000000000004,94,100,2.06,ZA,1701583218
364,cottage grove,44.8277,-92.9438,1.4399999999999977,86,100,3.6,US,1701583138
365,vila velha,-20.3297,-40.2925,25.970000000000027,88,75,2.57,BR,1701583231
366,rostovka,55.3842,71.8891,-1.7899999999999636,92,100,9.09,RU,1701583231
367,worthington,40.0931,-83.018,9.25,87,96,0.89,US,1701583231
368,mount pearl,47.5166,-52.7813,2.3000000000000114,92,75,4.12,CA,1701583232
369,akrehamn,59.2667,5.1833,1.900000000000034,93,100,4.63,NO,1701583233
370,abalak,58.1286,68.5944,-15.919999999999959,92,100,6.51,RU,1701583233
371,polyarnyy,69.1989,33.4478,-1.42999999999995,91,100,5.43,RU,1701583233
372,peterhead,57.5058,-1.7981,-3.7799999999999727,70,14,1.31,GB,1701583234
373,kalabo,-14.97,22.6814,22.090000000000032,79,100,1.02,ZM,1701583235
374,ishigaki,24.3448,124.1572,22.07000000000005,88,75,8.23,JP,1701583235
375,callao,-12.0667,-77.15,21.510000000000048,82,75,3.09,PE,1701583236
376,plainview,40.7765,-73.4673,10.370000000000005,90,100,3.09,US,1701583237
377,huarmey,-10.0681,-78.1522,20.170000000000016,88,91,3.81,PE,1701583238
378,tual,-5.6667,132.75,27.82000000000005,77,100,6.72,ID,1701583239
379,nampula,-15.1165,39.2666,22.970000000000027,78,20,3.6,MZ,1701583240
380,inarajan village,13.2736,144.7484,30.08000000000004,78,97,9.19,GU,1701583242
381,new plymouth,-39.0667,174.0833,14.620000000000005,95,100,3.49,NZ,1701583083
382,cidreira,-30.1811,-50.2056,22.07000000000005,96,100,1.0,BR,1701583243
383,piterka,50.6803,47.4454,-1.3899999999999864,69,96,4.08,RU,1701583243
384,kerrville,30.0474,-99.1403,13.860000000000014,61,0,0.0,US,1701583070
385,iskateley,67.6803,53.1512,-12.769999999999982,94,100,4.92,RU,1701583244
386,soto la marina,23.7667,-98.2167,19.480000000000018,80,100,1.64,MX,1701583245
387,darwha,20.3167,77.7667,26.930000000000007,49,91,4.63,IN,1701583245
388,igrim,63.1906,64.4162,-18.859999999999985,89,99,4.61,RU,1701583246
389,andergrove,-21.0833,149.1833,24.24000000000001,94,86,1.56,AU,1701583247
390,n'zeto,-7.2312,12.8666,26.930000000000007,75,93,3.03,AO,1701583247
391,moab,38.5733,-109.5498,7.010000000000048,41,97,0.89,US,1701583175
392,noumea,-22.2763,166.4572,29.99000000000001,72,86,5.57,NC,1701583247
393,san jose de jachal,-30.2406,-68.7469,14.910000000000025,42,7,3.83,AR,1701583249
394,pechora,65.1472,57.2244,-11.189999999999998,96,100,1.79,RU,1701583249
395,la mira,18.035,-102.3266,25.110000000000014,83,100,1.69,MX,1701583249
396,salinopolis,-0.6136,-47.3561,27.910000000000025,78,56,6.36,BR,1701583249
397,tamanrasset,22.785,5.5228,5.9500000000000455,24,0,1.03,DZ,1701583250
398,sinaloa de leyva,25.8333,-108.2333,17.310000000000002,37,0,1.92,MX,1701583251
399,broome,42.2506,-75.833,8.450000000000045,89,100,2.06,US,1701583068
400,krasnyy chikoy,50.3643,108.7512,-4.479999999999961,84,87,2.35,RU,1701583252
401,hassi messaoud,31.6804,6.0729,9.920000000000016,50,0,1.54,DZ,1701583252
402,sault ste. marie,46.5168,-84.3333,-3.6899999999999977,72,0,2.57,CA,1701583192
403,torghay,49.6339,63.4981,0.75,68,100,9.08,KZ,1701583252
404,ikaalinen,61.7695,23.0658,-8.92999999999995,97,100,1.21,FI,1701583252
405,canico,32.6333,-16.85,18.890000000000043,79,40,2.57,PT,1701583253
406,harsova,44.6833,27.9333,9.770000000000039,77,98,2.59,RO,1701583253
407,katsuura,35.1333,140.3,12.910000000000025,55,2,7.06,JP,1701583254
408,temnikov,54.6302,43.2148,-9.919999999999959,96,99,2.68,RU,1701583254
409,stephenville,32.2207,-98.2023,10.430000000000007,57,0,0.0,US,1701583122
410,berezovyy,51.6667,135.7,-10.039999999999964,71,54,2.31,RU,1701583255
411,saint-joseph,-21.3667,55.6167,28.04000000000002,94,88,2.42,RE,1701583255
412,sorochinsk,52.4338,53.1583,-4.8700000000000045,81,82,3.44,RU,1701583255
413,kachug,53.9606,105.8817,-2.75,76,97,4.47,RU,1701583256
414,riyadh,24.6877,46.7219,15.080000000000041,27,73,2.45,SA,1701582971
415,kodinsk,58.6881,99.1844,-7.529999999999973,88,100,3.78,RU,1701583256
416,kingston,17.997,-76.7936,26.53000000000003,93,20,1.03,JM,1701583188
417,birendranagar,28.6019,81.6339,24.710000000000036,23,0,1.1,NP,1701583257
418,arraial do cabo,-22.9661,-42.0278,23.25,95,59,6.19,BR,1701583132
419,coron,11.9986,120.2043,31.03000000000003,61,34,5.47,PH,1701583257
420,talcahuano,-36.7167,-73.1167,9.82000000000005,66,0,6.17,CL,1701583257
421,elizabeth city,36.2946,-76.2511,18.340000000000032,96,100,1.54,US,1701583212
422,tabou,4.423,-7.3528,26.02000000000004,85,5,2.46,CI,1701583258
423,samdrup jongkhar,26.9167,91.6167,23.810000000000002,32,0,2.43,BT,1701583258
424,maracacume,-2.0428,-45.9592,23.360000000000014,98,100,1.09,BR,1701583258
425,jalapa,19.5333,-96.9167,17.120000000000005,91,98,1.48,MX,1701583175
426,kota kinabalu,5.9749,116.0724,32.99000000000001,70,20,2.06,MY,1701583259
427,nasiriyah,31.0521,46.261,17.850000000000023,37,0,3.74,IQ,1701583259
428,tekkali,18.6167,84.2333,26.08000000000004,57,100,5.92,IN,1701583259
429,kone,-21.0595,164.8658,28.400000000000034,60,99,2.22,NC,1701583259
430,as samawah,31.332,45.2944,17.560000000000002,37,0,3.98,IQ,1701583260
431,jiexiu,37.0244,111.9125,9.350000000000023,14,7,4.28,CN,1701583260
432,road town,18.4167,-64.6167,26.950000000000045,73,3,7.81,VG,1701583209
433,kainantu,-6.2887,145.8655,23.090000000000032,76,90,1.78,PG,1701583261
434,piti village,13.4626,144.6933,30.03000000000003,76,95,10.04,GU,1701583261
435,harper,4.375,-7.7169,24.090000000000032,93,7,1.21,LR,1701583261
436,chayan,43.0297,69.3772,9.189999999999998,71,34,2.73,KZ,1701583262
437,mandera,3.9366,41.867,28.840000000000032,47,91,3.96,KE,1701583262
438,qaqortoq,60.7167,-46.0333,-2.819999999999993,73,100,3.86,GL,1701583262
439,namtsy,62.7161,129.6658,-43.66999999999999,100,65,1.18,RU,1701583263
440,zyryanovsk,49.7386,84.2719,-0.47999999999996135,98,100,0.45,KZ,1701583263
441,coahuayana de hidalgo,18.7,-103.6583,24.260000000000048,76,100,1.54,MX,1701583263
442,badagry,6.4167,2.8833,25.650000000000034,86,55,0.24,NG,1701583264
443,barcelos,41.5388,-8.6151,8.25,81,63,2.57,PT,1701583264
444,glendive,47.1053,-104.7125,-0.20999999999997954,59,40,2.57,US,1701583253
445,sydney,-33.8679,151.2073,26.689999999999998,68,40,11.32,AU,1701583017
446,ponta delgada,37.7333,-25.6667,13.400000000000034,76,75,3.09,PT,1701583231
447,bodo,67.28,14.405,-4.979999999999961,61,0,7.72,NO,1701583264
448,shengli,37.4564,118.4856,9.82000000000005,19,0,3.39,CN,1701583265
449,jinxiang,27.4327,120.6062,13.050000000000011,63,100,1.89,CN,1701583265
450,choyr,46.3611,108.3611,-5.019999999999982,69,26,4.57,MN,1701583265
451,zaysan,47.4667,84.8667,3.140000000000043,50,100,0.72,KZ,1701583265
452,tres arroyos,-38.3739,-60.2798,7.100000000000023,63,59,1.08,AR,1701583266
453,oleshky,46.6249,32.7251,10.590000000000032,86,100,5.68,UA,1701583266
454,constitucion,-35.3333,-72.4167,10.520000000000039,51,0,4.65,CL,1701583266
455,boonville,38.9736,-92.7432,5.100000000000023,98,100,0.0,US,1701582971
456,bodaybo,57.8506,114.1933,-5.329999999999984,91,100,1.79,RU,1701583163
457,swift current,50.2834,-107.8014,-1.5499999999999545,74,40,3.6,CA,1701583105
458,ullo,47.3877,19.3553,-0.7099999999999795,74,75,6.17,HU,1701583267
459,amla,21.9333,78.1167,25.629999999999995,46,34,4.53,IN,1701583268
460,kharp,66.8014,65.8081,-23.889999999999986,100,37,0.58,RU,1701583268
461,bardai,11.65,7.2333,18.24000000000001,14,28,2.82,NG,1701583268
462,sabang,5.8933,95.3214,27.439999999999998,79,92,6.43,ID,1701583268
463,lewistown,40.5992,-77.5714,9.240000000000009,100,75,0.0,US,1701583269
464,mirnyy,62.5353,113.9611,-34.869999999999976,74,52,1.79,RU,1701583269
465,tabuk,17.4189,121.4443,29.53000000000003,63,41,2.51,PH,1701583269
466,ares,-6.1944,-35.1603,26.05000000000001,94,42,1.66,BR,1701583269
467,del rio,29.3627,-100.8968,11.220000000000027,50,0,0.0,US,1701583269
468,mahikeng,-25.8652,25.6442,28.99000000000001,17,0,4.63,ZA,1701583270
469,alaghsas,17.0187,8.0168,18.939999999999998,19,21,1.03,NE,1701583270
470,itaituba,-4.2761,-55.9836,23.200000000000045,96,100,0.84,BR,1701583270
471,darwin,-12.4611,130.8418,31.08000000000004,74,100,2.06,AU,1701583211
472,touros,-5.1989,-35.4608,26.5,78,90,7.01,BR,1701583271
473,tsumeb,-19.2333,17.7167,25.180000000000007,49,87,5.05,NA,1701583118
474,akureyri,65.6835,-18.0878,-6.039999999999964,93,100,0.0,IS,1701583271
475,sligo,54.2697,-8.4694,1.4500000000000455,79,97,2.35,IE,1701583271
476,lao cai,22.4833,103.95,21.370000000000005,100,100,0.64,VN,1701583271
477,quellon,-43.1167,-73.6167,5.3799999999999955,92,33,1.07,CL,1701583271
478,paita,-5.0892,-81.1144,19.710000000000036,90,41,5.27,PE,1701583272
479,enniscorthy,52.5008,-6.5578,3.170000000000016,93,100,1.2,IE,1701583272
480,lazaro cardenas,17.9583,-102.2,24.610000000000014,79,100,1.6,MX,1701583272
481,arica,-18.475,-70.3042,18.129999999999995,72,0,2.57,CL,1701582976
482,malango,-2.9627,119.9001,25.950000000000045,83,69,1.28,ID,1701583272
483,meadow lakes,61.6247,-149.6011,-1.0,66,0,1.54,US,1701583273
484,kutum,14.2,24.6667,18.680000000000007,23,44,3.68,SD,1701583273
485,pauini,-7.7136,-66.9764,22.480000000000018,96,97,0.93,BR,1701583273
486,llanes,43.4198,-4.7549,9.439999999999998,65,27,2.78,ES,1701583273
487,saarijarvi,62.7049,25.254,-12.129999999999995,98,98,1.15,FI,1701583274
488,mezapa,15.5833,-87.65,23.33000000000004,93,4,1.48,HN,1701583274
489,riverton,40.5219,-111.9391,5.430000000000007,76,100,10.28,US,1701583274
490,kuvshinovo,57.0295,34.1725,-14.139999999999986,99,99,1.29,RU,1701583275
491,farafangana,-22.8167,47.8333,24.450000000000045,52,33,3.41,MG,1701583275
492,beichengqu,40.4394,113.1536,1.2100000000000364,20,74,7.51,CN,1701583275
493,portoferraio,42.8115,10.3146,12.760000000000048,81,75,6.17,IT,1701583276
494,bestobe,52.4994,73.0975,1.8000000000000114,67,100,12.19,KZ,1701583276
495,jianshui,23.6363,102.8264,19.25,79,100,2.6,CN,1701583276
496,dakhla,23.6848,-15.958,19.160000000000025,88,82,3.49,EH,1701583276
497,bac lieu,9.285,105.7244,27.720000000000027,81,100,5.87,VN,1701583277
498,kichmengskiy gorodok,59.9816,45.7854,-15.029999999999973,98,66,0.89,RU,1701583277
499,ust'-kulom,61.6864,53.6902,-13.199999999999989,98,99,0.66,RU,1701583277
500,remire-montjoly,4.9167,-52.2667,24.02000000000004,94,75,0.0,GF,1701583277
501,port macquarie,-31.4333,152.9167,26.05000000000001,68,63,3.4,AU,1701583077
502,kovylkino,54.0388,43.9139,-7.7999999999999545,95,98,2.75,RU,1701583277
503,brisas de zicatela,15.8369,-97.0419,24.480000000000018,76,24,1.45,MX,1701583278
504,korla,41.7597,86.1469,8.730000000000018,28,69,1.17,CN,1701583278
505,les anglais,18.3054,-74.2197,25.07000000000005,82,47,1.01,HT,1701583278
506,saint-philippe,-21.3585,55.7679,27.28000000000003,83,75,4.2,RE,1701583279
507,kill devil hills,36.0307,-75.676,18.010000000000048,99,100,1.54,US,1701583249
508,lafayette,30.2335,-92.0668,19.390000000000043,92,100,0.45,US,1701583279
509,harstad,68.799,16.5293,-2.1399999999999864,88,65,1.65,NO,1701583279
510,virac,13.6333,124.2167,23.77000000000004,83,37,4.99,PH,1701583281
511,imbituba,-28.24,-48.6703,22.610000000000014,97,99,1.63,BR,1701583281
512,nova xavantina,-14.6667,-52.35,25.52000000000004,57,28,0.66,BR,1701583281
513,bartica,6.4,-58.6167,24.180000000000007,99,15,0.92,GY,1701583282
514,sovetskaya gavan',48.9723,140.2878,-4.939999999999998,52,0,2.53,RU,1701583282
515,rawson,-43.3002,-65.1023,10.900000000000034,36,45,9.58,AR,1701583282
516,acarau,-2.8856,-40.12,26.970000000000027,75,19,5.69,BR,1701583282
517,anina,45.0794,21.8569,-2.75,84,97,2.95,RO,1701583283
518,zouerate,22.7187,-12.4521,17.74000000000001,60,54,2.45,MR,1701583283
519,eaglehawk,-36.7333,144.25,23.53000000000003,43,64,2.74,AU,1701583283
520,kidal,18.4411,1.4078,21.860000000000014,9,15,4.4,ML,1701583284
521,el tigre,8.8875,-64.2454,23.629999999999995,81,55,4.43,VE,1701583284
522,sinabang,2.4803,96.3801,24.460000000000036,93,100,7.23,ID,1701583284
523,noosa heads,-26.3833,153.15,29.629999999999995,74,51,5.58,AU,1701583025
524,howard springs,-12.497,131.047,30.49000000000001,81,100,1.3,AU,1701583285
525,palmer,42.1584,-72.3287,7.3799999999999955,86,100,0.0,US,1701583245
526,lhasa,29.65,91.1,6.670000000000016,22,2,2.14,CN,1701583285
527,uturoa,-16.7333,-151.4333,27.600000000000023,76,64,8.47,PF,1701583286
528,vyritsa,59.4078,30.3481,-7.269999999999982,100,93,0.14,RU,1701583286
529,sao joao da barra,-21.6403,-41.0511,22.03000000000003,98,34,0.94,BR,1701583286
530,ola,59.5833,151.2833,-19.559999999999974,87,100,2.79,RU,1701583286
531,cabo san lucas,22.8909,-109.9124,22.510000000000048,67,0,1.53,MX,1701583229
532,ubatuba,-23.4339,-45.0711,24.33000000000004,96,34,1.2,BR,1701583287
533,cockburn town,21.4612,-71.1419,27.200000000000045,73,69,9.7,TC,1701583287
534,scottburgh,-30.2867,30.7532,24.430000000000007,73,30,7.63,ZA,1701583287
535,bhadrachalam,17.6667,80.8833,29.980000000000018,43,91,2.51,IN,1701583288
536,mazagao,-0.115,-51.2894,28.03000000000003,98,21,1.8,BR,1701583288
537,nueva esperanza,15.2667,-87.6,22.79000000000002,90,8,1.21,HN,1701583288
538,mananjary,-21.2167,48.3333,24.950000000000045,59,72,2.06,MG,1701583288
539,qeshm,26.9581,56.2719,25.930000000000007,57,0,0.56,IR,1701583289
540,lompoc,34.6391,-120.4579,13.29000000000002,84,0,5.81,US,1701583120
541,la'ie,21.6477,-157.9253,25.0,82,10,0.89,US,1701583184
542,porto novo,6.4965,2.6036,25.189999999999998,87,58,0.87,BJ,1701583289
543,valparaiso,-33.0393,-71.6273,15.270000000000039,68,10,7.73,CL,1701583290
544,kirkwall,58.9848,-2.9587,5.490000000000009,62,10,3.67,GB,1701583290
545,guerrero negro,27.9769,-114.0611,17.689999999999998,72,0,5.13,MX,1701583290
546,i-n-salah,27.1935,2.4607,17.439999999999998,16,0,3.41,DZ,1701583290
547,north battleford,52.7834,-108.2847,-11.949999999999989,85,100,1.54,CA,1701583243
548,moa,20.6569,-74.9403,26.400000000000034,81,62,6.32,CU,1701583290
549,saurimo,-9.6608,20.3916,19.350000000000023,90,97,2.09,AO,1701583291
550,kassala,15.451,36.4,26.510000000000048,54,12,3.36,SD,1701583291
551,kzyltu,53.6364,72.3414,-0.7799999999999727,80,84,11.42,KZ,1701583291
552,thabazimbi,-24.5917,27.4116,26.640000000000043,24,14,6.66,ZA,1701583292
553,northam,51.0333,-4.2167,9.25,96,100,8.65,GB,1701583292
554,baruun-urt,46.6806,113.2792,-8.789999999999964,86,11,4.8,MN,1701583292
555,bengkulu,-3.8004,102.2655,27.939999999999998,75,100,3.21,ID,1701583292
556,eureka,40.8021,-124.1637,13.680000000000007,97,100,1.79,US,1701582900
557,mil'kovo,55.6078,37.7956,-4.779999999999973,96,100,3.0,RU,1701583293
558,comandante fontana,-25.3345,-59.6821,27.78000000000003,66,60,2.63,AR,1701583293
559,saint croix,17.7397,-64.7388,24.980000000000018,83,8,0.89,VI,1701583293
560,chibougamau,49.9168,-74.3659,-21.20999999999998,84,40,0.0,CA,1701583293
561,kodinar,20.7903,70.7031,30.620000000000005,49,2,4.94,IN,1701583294
562,cole harbour,44.6724,-63.4751,3.7100000000000364,95,100,7.2,CA,1701583294
563,robertsport,6.7533,-11.3686,25.590000000000032,85,30,1.3,LR,1701583294
564,majene,-3.5403,118.9707,29.760000000000048,72,59,2.9,ID,1701583294
